RC	UFI	UNI	LAT	LONG	DMS_LAT	DMS_LONG	MGRS	JOG	FC	DSG	PC	CC1	ADM1	POP	ELEV	CC2	NT	LC	SHORT_FORM	GENERIC	SORT_NAME_RO	FULL_NAME_RO	FULL_NAME_ND_RO	SORT_NAME_RG	FULL_NAME_RG	FULL_NAME_ND_RG	NOTE	MODIFY_DATE	DISPLAY	NAME_RANK	NAME_LINK	TRANSL_CD	NM_MODIFY_DATE	F_EFCTV_DT	F_TERM_DT
3	-1264602	-1841078	-29	17	29:00:00S	17:00:00E	33JXH9482190365	SH33-04	L	RGN		SF,WA				SF,WA	N				NAMAQUALAND	Namaqualand	Namaqualand	NAMAQUALAND	Namaqualand	Namaqualand		2021-07-09	1,2,3,4,5	1			2021-07-09		
3	-1264602	-1841068	-29	17	29:00:00S	17:00:00E	33JXH9482190365	SH33-04	L	RGN		SF,WA					V				NAMALAND	Namaland	Namaland	NAMALAND	Namaland	Namaland		2021-07-09	1,2,3,4,5				1993-09-01		
3	-1264602	-1841067	-29	17	29:00:00S	17:00:00E	33JXH9482190365	SH33-04	L	RGN		SF,WA					V				NAMAKWALAND	Namakwaland	Namakwaland	NAMAKWALAND	Namakwaland	Namakwaland		2021-07-09	1,2,3,4,5				1993-09-01		
3	-1303387	-1886468	-31.383333	23.9	31:23:00S	23:54:00E	34JGL7579224277	SH34-16	L	LCTY		SF	08				N				WOLWERANT	Wolwerant	Wolwerant	WOLWERANT	Wolwerant	Wolwerant		2004-04-28	1,2,3,4,5	1			1993-09-01		
3	-1302907	-1853197	-26.25	28	26:15:00S	28:00:00E	35JNL9986896244	SG35-11	L	RGN		SF	06				V				THERAND	The Rand	The Rand	RAND THE	Rand, The	Rand, The		2004-05-11	1,2,3,4,5				1993-09-01		
3	-1302907	-1802020	-26.25	28	26:15:00S	28:00:00E	35JNL9986896244	SG35-11	L	RGN		SF	06				V				THEGOLDREEF	The Gold Reef	The Gold Reef	GOLDREEF THE	Gold Reef, The	Gold Reef, The		2004-05-11	1,2,3,4,5				1993-09-01		
3	-1302907	-1853241	-26.25	28	26:15:00S	28:00:00E	35JNL9986896244	SG35-11	L	RGN		SF	06				V				THERANDREGION	The Rand-region	The Rand-region	RANDREGION THE	Rand-region, The	Rand-region, The		2004-05-11	1,2,3,4,5				1993-09-01		
3	-1302907	-1885871	-26.25	28	26:15:00S	28:00:00E	35JNL9986896244	SG35-11	L	RGN		SF	06				N				WITWATERSRAND	Witwatersrand	Witwatersrand	WITWATERSRAND	Witwatersrand	Witwatersrand		2004-05-11	1,2,3,4,5	1			1993-09-01		
3	-1303704	-1886824	-30.8	28.766667	30:48:00S	28:46:00E	35JPF6902191228	SH35-12	L	LCTY		SF	05				N				WUBA	Wuba	Wuba	WUBA	Wuba	Wuba		2004-04-27	1,2,3,4,5	1			1993-09-01		
3	-1302918	-1885889	-28.6	28.866667	28:36:00S	28:52:00E	35JPJ8252634906	SH35-04	L	RESN		SF	03				N				WITZIESHOEKNATURELLERESERWE	Witzieshoek Naturellereserwe	Witzieshoek Naturellereserwe	WITZIESHOEKNATURELLERESERWE	Witzieshoek Naturellereserwe	Witzieshoek Naturellereserwe		2004-04-29	1,2,3,4,5	1			1993-09-01		
3	-1302918	-1885888	-28.6	28.866667	28:36:00S	28:52:00E	35JPJ8252634906	SH35-04	L	RESN		SF	03				V				WITZIESHOEKNATURELLERESERVE	Witzieshoek-Naturellereserve	Witzieshoek-Naturellereserve	WITZIESHOEKNATURELLERESERVE	Witzieshoek-Naturellereserve	Witzieshoek-Naturellereserve		2004-04-29	1,2,3,4,5				1993-09-01		
3	-1305185	-1888652	-29.266667	18.85	29:16:00S	18:51:00E	34JBN9110460553	SH34-05	L	AREA		SF	08				D				ZUURWATER	Zuurwater	Zuurwater	ZUURWATER	Zuurwater	Zuurwater		2004-04-28	1,2,3,4,5	1			1993-09-01		
3	-1296128	-1878218	-26.283333	27.75	26:17:00S	27:45:00E	35JNL7487992721	SG35-11	L	AREA		SF	06				D				VENTERSPOSLOKASIE	Venterspos Lokasie	Venterspos Lokasie	VENTERSPOSLOKASIE	Venterspos Lokasie	Venterspos Lokasie		2004-05-11	1,2,3,4,5	1			1993-09-01		
3	-1291165	-1872207	-30.333333	18.016667	30:20:00S	18:01:00E	34JBM1316740504	SH34-09	L	LCTY		SF	08				N				TIERHOEK	Tierhoek	Tierhoek	TIERHOEK	Tierhoek	Tierhoek		2004-04-28	1,2,3,4,5	1			1993-09-01		
3	-1303864	-1887010	-32.183333	28.133333	32:11:00S	28:08:00E	35HPE0683938680	SI35-03	L	AREA		SF	05				D				XILINXA	Xilinxa	Xilinxa	XILINXA	Xilinxa	Xilinxa		2004-04-27	1,2,3,4,5	1			1993-09-01		
3	-1290130	-1871040	-31.5	28	31:30:00S	28:00:00E	35JNF9496714550	SH35-15	L	RGN		SF	05				D				TEMBULAND	Tembuland	Tembuland	TEMBULAND	Tembuland	Tembuland		2004-04-27	1,2,3,4,5	1			1993-09-01		
3	-1290130	-1871036	-31.5	28	31:30:00S	28:00:00E	35JNF9496714550	SH35-15	L	RGN		SF	05				V				TEMBOELAND	Temboeland	Temboeland	TEMBOELAND	Temboeland	Temboeland		2004-04-27	1,2,3,4,5				1993-09-01		
3	-1301641	-1884433	-25.766667	20.7	25:46:00S	20:42:00E	34JDS6991850122	SG34-06	L	LCTY		SF	08				N				WIMBLESDRAAISOUTHAFRICAMOUNTEDRIFLESRESERVE	Wimbles Draai South Africa Mounted Rifles Reserve	Wimbles Draai South Africa Mounted Rifles Reserve	WIMBLESDRAAISOUTHAFRICAMOUNTEDRIFLESRESERVE	Wimbles Draai South Africa Mounted Rifles Reserve	Wimbles Draai South Africa Mounted Rifles Reserve		2004-04-28	1,2,3,4,5	1			1993-09-01		
3	-1290625	-1871607	-28.25	32.383333	28:15:00S	32:23:00E	36JVP3950874949	SH36-02	L	RESF		SF	02				N				THENARROWSPLANTATION	The Narrows Plantation	The Narrows Plantation	THENARROWSPLANTATION	The Narrows Plantation	The Narrows Plantation		2004-04-27	1,2,3,4,5	1			1993-09-01		
3	-1303064	-1886047	-29.05	18.216667	29:03:00S	18:13:00E	34JBN2897783277	SH34-05	L	LCTY		SF	08				N				WOLFTOON	Wolftoon	Wolftoon	WOLFTOON	Wolftoon	Wolftoon		2004-04-28	1,2,3,4,5	1			1993-09-01		
3	-1294532	-1876385	-32.016667	28.916667	32:01:00S	28:55:00E	35HPE8102256111	SI35-04	L	LCTY		SF	05				N				UPPERMNCWASA	Upper Mncwasa	Upper Mncwasa	UPPERMNCWASA	Upper Mncwasa	Upper Mncwasa		2004-04-27	1,2,3,4,5	1			1993-09-01		
3	-1291346	-1872406	-25.866667	20.283333	25:52:00S	20:17:00E	34JDS2819638886	SG34-06	L	LCTY		SF	08				N				TIGNABRUAICH	Tigna Bruaich	Tigna Bruaich	TIGNABRUAICH	Tigna Bruaich	Tigna Bruaich		2004-04-28	1,2,3,4,5	1			1993-09-01		
3	-1296179	-1878275	-29.1	16.8	29:06:00S	16:48:00E	33JXH7516679597	SH33-08	L	AREA		SF	08				D				VERBODEGEBIED	Verbode Gebied	Verbode Gebied	VERBODEGEBIED	Verbode Gebied	Verbode Gebied		2004-12-22	1,2,3,4,5	1			1993-09-01		
3	-1290173	-1871089	-22.716667	30.533333	22:43:00S	30:32:00E	36KTV4663285738	SF36-09	L	LCTY		SF	09				D				TENGWESLOCATION	Tengwe’s Location	Tengwe's Location	TENGWESLOCATION	Tengwe’s Location	Tengwe's Location		2004-05-11	1,2,3,4,5	1			1993-09-01		
3	-1298810	-1881241	-29.083333	29.85	29:05:00S	29:51:00E	35JQH7742879426	SH35-08	L	RESN		SF	02				N				WAGENDRIFTPUBLICRESORTNATURERESERVE	Wagendrift Public Resort Nature Reserve	Wagendrift Public Resort Nature Reserve	WAGENDRIFTPUBLICRESORTNATURERESERVE	Wagendrift Public Resort Nature Reserve	Wagendrift Public Resort Nature Reserve		2004-04-27	1,2,3,4,5	1			1993-09-01		
3	-1304208	-1887417	-33.016667	27.166667	33:01:00S	27:10:00E	35HND1556646853	SI35-07	L	LCTY		SF	05				N				ZALARA	Zalara	Zalara	ZALARA	Zalara	Zalara		2004-04-27	1,2,3,4,5	1			1993-09-01		
3	-1295817	-1877855	-30.716667	17.633333	30:43:00S	17:38:00E	33JYF5217798836	SH33-12	L	AREA		SF	08				D				VANZYLSRUS	Van Zylsrus	Van Zylsrus	VANZYLSRUS	Van Zylsrus	Van Zylsrus		2004-04-28	1,2,3,4,5	1			1993-09-01		
3	-1291892	-1873066	-33.916667	22.616667	33:55:00S	22:37:00E	34HFH4944945907	SI34-08	L	RESF		SF	11				D				TOUWSBERGBOSRESERWE	Touwsberg Bosreserwe	Touwsberg Bosreserwe	TOUWSBERGBOSRESERWE	Touwsberg Bosreserwe	Touwsberg Bosreserwe		2004-04-23	1,2,3,4,5	1			1993-09-01		
3	-1301557	-1884338	-30.15	24.2	30:09:00S	24:12:00E	35JKG3030061282	SH35-09	L	AREA		SF	08				D				WILLOWBANK	Willowbank	Willowbank	WILLOWBANK	Willowbank	Willowbank		2004-04-28	1,2,3,4,5	1			1993-09-01		
3	-1292557	-1873861	-28.783333	30.816667	28:47:00S	30:49:00E	36JTP8687414063	SH36-01	L	AREA		SF	02				D				TUGELALOKASIE	Tugelalokasie	Tugelalokasie	TUGELALOKASIE	Tugelalokasie	Tugelalokasie		2004-04-27	1,2,3,4,5	1			1993-09-01		
3	-1300766	-1883396	-27.166667	22.866667	27:10:00S	22:52:00E	34JFQ8494793729	SG34-16	L	AREA		SF	08				D				WEST	West	West	WEST	West	West		2004-04-28	1,2,3,4,5	1			1993-09-01		
3	-1289445	-1870221	-23.216667	30.433333	23:13:00S	30:26:00E	36KTV3732530175	SF36-13	L	AREA		SF	09				D				TABAANSLOKASIE	Tabaanslokasie	Tabaanslokasie	TABAANSLOKASIE	Tabaanslokasie	Tabaanslokasie		2004-05-11	1,2,3,4,5	1			1993-09-01		
3	-1305086	-1888119	-28	32	28:00:00S	32:00:00E	36JVQ0167502395	SG36-14	L	RGN		SF	02				V				ZOELOELAND	Zoeloeland	Zoeloeland	ZOELOELAND	Zoeloeland	Zoeloeland		2004-04-27	1,2,3,4,5,6,7,8,9				1993-09-01		
3	-1305086	-1888524	-28	32	28:00:00S	32:00:00E	36JVQ0167502395	SG36-14	L	RGN		SF	02				N				ZULULAND	Zululand	Zululand	ZULULAND	Zululand	Zululand		2004-04-27	1,2,3,4,5,6,7,8,9	1			1993-09-01		
3	-1296298	-1878402	-29.616667	29.583333	29:37:00S	29:35:00E	35JQH5015220902	SH35-08	L	RESN		SF	02				N				VERGELEGENNATURERESERVE	Vergelegen Nature Reserve	Vergelegen Nature Reserve	VERGELEGENNATURERESERVE	Vergelegen Nature Reserve	Vergelegen Nature Reserve		2004-04-27	1,2,3,4,5	1			1993-09-01		
3	-1294565	-1876427	-32	28.766667	32:00:00S	28:46:00E	35JPE6688358201	SH35-16	L	AREA		SF	05				D				UPPERTYOLO	Upper Tyolo	Upper Tyolo	UPPERTYOLO	Upper Tyolo	Upper Tyolo		2004-04-27	1,2,3,4,5	1			1993-09-01		
3	-1282586	-1862225	-26.4	25.116667	26:24:00S	25:07:00E	35JLL1214378644	SG35-09	L	RES		SF	10				D				SETLAGOLINATIVERESERVE	Setlagoli Native Reserve	Setlagoli Native Reserve	SETLAGOLINATIVERESERVE	Setlagoli Native Reserve	Setlagoli Native Reserve		2004-04-30	1,2,3,4,5	1			1993-09-01		
3	-1278131	-1857049	-29.2	19.55	29:12:00S	19:33:00E	34JCN5903568985	SH34-06	L	LCTY		SF	08				N				ROOIBANKE	Rooibanke	Rooibanke	ROOIBANKE	Rooibanke	Rooibanke		2004-04-29	1,2,3,4,5	1			1993-09-01		
3	-1278131	-1857046	-29.2	19.55	29:12:00S	19:33:00E	34JCN5903568985	SH34-06	L	LCTY		SF	08				V				ROOIBANK	Rooibank	Rooibank	ROOIBANK	Rooibank	Rooibank		2004-04-29	1,2,3,4,5				1993-09-01		
3	-1281657	-1861073	-28.683333	24.033333	28:41:00S	24:02:00E	35JKJ1010023493	SH35-01	L	LCTY		SF	08				N				SCHMIDTSDRIFTLOCATION	Schmidtsdrift Location	Schmidtsdrift Location	SCHMIDTSDRIFTLOCATION	Schmidtsdrift Location	Schmidtsdrift Location		2004-04-28	1,2,3,4,5	1			1993-09-01		
3	-1287985	-1868539	-25.55	31.816667	25:33:00S	31:49:00E	36JUS8112273620	SG36-06	L	LCTY		SF	07				N				STRYDOMBLOK	Strydomblok	Strydomblok	STRYDOMBLOK	Strydomblok	Strydomblok		2004-05-11	1,2,3,4,5	1			1993-09-01		
3	-1288593	-1869239	-32.383333	25.466667	32:23:00S	25:28:00E	35HLE5576716040	SI35-01	L	AREA		SF	05				N				SWAERSHOEK	Swaershoek	Swaershoek	SWAERSHOEK	Swaershoek	Swaershoek		2004-04-27	1,2,3,4,5	1			1993-09-01		
3	-1297581	-1879833	-30.283333	18.35	30:17:00S	18:21:00E	34JBM4509846844	SH34-09	L	LCTY		SF	08				N				VOELPOORT	Voëlpoort	Voelpoort	VOELPOORT	Voëlpoort	Voelpoort		2004-04-28	1,2,3,4,5	1			1993-09-01		
3	-1287636	-1868120	-29.216667	18.1	29:13:00S	18:06:00E	34JBN1806864525	SH34-05	L	LCTY		SF	08				N				STOFKRAAL	Stofkraal	Stofkraal	STOFKRAAL	Stofkraal	Stofkraal		2004-04-28	1,2,3,4,5	1			1993-09-01		
3	-1285139	-1865244	-33.5	25.583333	33:30:00S	25:35:00E	35HLC6840792383	SI35-06	L	AREA		SF	05				D				SONDAGSRIVIERNEDERSETTING	Sondagsriviernedersetting	Sondagsriviernedersetting	SONDAGSRIVIERNEDERSETTING	Sondagsriviernedersetting	Sondagsriviernedersetting		2004-04-27	1,2,3,4,5	1			1993-09-01		
3	-1283822	-1863746	-34.266667	21.366667	34:16:00S	21:22:00E	34HEH3375508215	SI34-11	L	AREA		SF	11				D				SKERPKOP	Skerpkop	Skerpkop	SKERPKOP	Skerpkop	Skerpkop		2004-04-23	1,2,3,4,5	1			1993-09-01		
3	-1291711	-1872851	-32.4	28.033333	32:24:00S	28:02:00E	35HNE9718014756	SI35-03	L	AREA		SF	05				D				TONGWANA	Tongwana	Tongwana	TONGWANA	Tongwana	Tongwana		2004-04-27	1,2,3,4,5	1			1993-09-01		
3	-1291708	-1773278	-27.166667	32.333333	27:10:00S	32:20:00E	36JVQ3395394929	SG36-14	L	RGN		SF	02				V				AMATONGALAND	Amatongaland	Amatongaland	AMATONGALAND	Amatongaland	Amatongaland		2004-04-27	1,2,3,4,5				1993-09-01		
3	-1291708	-1872847	-27.166667	32.333333	27:10:00S	32:20:00E	36JVQ3395394929	SG36-14	L	RGN		SF	02				N				TONGALAND	Tongaland	Tongaland	TONGALAND	Tongaland	Tongaland		2004-04-27	1,2,3,4,5	1			1993-09-01		
3	-1301516	-1884292	-29.916667	19.316667	29:55:00S	19:19:00E	34JCM3749989258	SH34-05	L	AREA		SF	08				D				WILLEMSDUIN	Willemsduin	Willemsduin	WILLEMSDUIN	Willemsduin	Willemsduin		2004-04-28	1,2,3,4,5	1			1993-09-01		
3	-1287848	-1868373	-25.9	20.35	25:54:00S	20:21:00E	34JDS3489435229	SG34-06	L	LCTY		SF	08				N				STRATHMORE	Strathmore	Strathmore	STRATHMORE	Strathmore	Strathmore		2004-04-28	1,2,3,4,5	1			1993-09-01		
3	-1280010	-1859102	-32.366667	28.15	32:22:00S	28:09:00E	35HPE0819218340	SI35-03	L	AREA		SF	05				D				RWANTSANA	Rwantsana	Rwantsana	RWANTSANA	Rwantsana	Rwantsana		2004-04-27	1,2,3,4,5	1			1993-09-01		
3	-1304647	-1887959	-32.466667	28.416667	32:28:00S	28:25:00E	35HPE3313506952	SI35-03	L	AREA		SF	05				D				ZIBUNU	Zibunu	Zibunu	ZIBUNU	Zibunu	Zibunu		2004-04-27	1,2,3,4,5	1			1993-09-01		
3	-1286371	-1866675	-30.3	24.366667	30:18:00S	24:22:00E	35JKG4674445034	SH35-09	L	AREA		SF	08				D				SPITZKOPJE	Spitzkopje	Spitzkopje	SPITZKOPJE	Spitzkopje	Spitzkopje		2004-04-28	1,2,3,4,5	1			1993-09-01		
3	-1282329	-1861908	-25.933333	20.716667	25:56:00S	20:43:00E	34JDS7162931668	SG34-06	L	AREA		SF	08				D				SEKWATS	Sekwats	Sekwats	SEKWATS	Sekwats	Sekwats		2004-04-28	1,2,3,4,5	1			1993-09-01		
3	-1282328	-1862298	-24.75	29.8	24:45:00S	29:48:00E	35JQN8319059835	SG35-04	L	LCTY		SF	09				V				SEWATISLOKASIE	Sewatislokasie	Sewatislokasie	SEWATISLOKASIE	Sewatislokasie	Sewatislokasie		2004-05-11	1,2,3,4,5				1993-09-01		
3	-1282328	-1861906	-24.75	29.8	24:45:00S	29:48:00E	35JQN8319059835	SG35-04	L	LCTY		SF	09				N				SEKWATISLOKASIE	Sekwatislokasie	Sekwatislokasie	SEKWATISLOKASIE	Sekwatislokasie	Sekwatislokasie		2004-05-11	1,2,3,4,5	1			1993-09-01		
3	-1294322	-1875986	-30.1	30.633333	30:06:00S	30:38:00E	36JTM7193767771	SH36-09	L	RES		SF	02				D				UMLAZILOCATION	Umlazi Location	Umlazi Location	UMLAZILOCATION	Umlazi Location	Umlazi Location		2004-04-27	1,2,3,4,5	1			1993-09-01		
3	-1294321	-1875985	-29.933333	30.783333	29:56:00S	30:47:00E	36JTM8603886536	SH36-05	L	RES		SF	02				D				UMLAZILOCATION	Umlazi Location	Umlazi Location	UMLAZILOCATION	Umlazi Location	Umlazi Location		2004-04-27	1,2,3,4,5	1			1993-09-01		
3	-1276358	-1855065	-29.3	17.533333	29:18:00S	17:32:00E	33JYH4607356113	SH33-08	L	LCTY		SF	08				N				RIETKLOOF	Rietkloof	Rietkloof	RIETKLOOF	Rietkloof	Rietkloof		2004-04-29	1,2,3,4,5	1			1993-09-01		
3	-1300681	-1883300	-23.883333	27.033333	23:53:00S	27:02:00E	35KNP0339358690	SF35-15	L	RESN		SF	09				D				WENTZELPRIVATENATURERESERVE	Wentzel Private Nature Reserve	Wentzel Private Nature Reserve	WENTZELPRIVATENATURERESERVE	Wentzel Private Nature Reserve	Wentzel Private Nature Reserve		2004-05-11	1,2,3,4,5	1			1993-09-01		
3	-1298992	-1881467	-25.783333	28.333333	25:47:00S	28:20:00E	35JPM3368847634	SG35-07	L	LCTY		SF	06				N				WAPADRANT	Wapadrant	Wapadrant	WAPADRANT	Wapadrant	Wapadrant		2004-05-11	1,2,3,4,5	1			1993-09-01		
3	-1289493	-1870289	-25.083333	20.083333	25:05:00S	20:05:00E	34JDT0755925511	SG34-06	L	LCTY		SF	08				N				TABULILAGI	Tabuli Lagi	Tabuli Lagi	TABULILAGI	Tabuli Lagi	Tabuli Lagi		2004-04-28	1,2,3,4,5	1			1993-09-01		
3	-1279713	-1858781	-33.9	21.983333	33:54:00S	21:59:00E	34HEH9091748497	SI34-07	L	RESF		SF	11				V				RUITERSBOSFORESTRESERVE	Ruitersbos Forest Reserve	Ruitersbos Forest Reserve	RUITERSBOSFORESTRESERVE	Ruitersbos Forest Reserve	Ruitersbos Forest Reserve		2004-04-23	1,2,3,4,5				1993-09-01		
3	-1279713	-1858772	-33.9	21.983333	33:54:00S	21:59:00E	34HEH9091748497	SI34-07	L	RESF		SF	11				D				RUITERBOSBOSRESERWE	Ruiterbos Bosreserwe	Ruiterbos Bosreserwe	RUITERBOSBOSRESERWE	Ruiterbos Bosreserwe	Ruiterbos Bosreserwe		2004-04-23	1,2,3,4,5	1			1993-09-01		
3	-1279713	-1858776	-33.9	21.983333	33:54:00S	21:59:00E	34HEH9091748497	SI34-07	L	RESF		SF	11				V				RUITERBOSFORESTRESERVE	Ruiterbos Forest Reserve	Ruiterbos Forest Reserve	RUITERBOSFORESTRESERVE	Ruiterbos Forest Reserve	Ruiterbos Forest Reserve		2004-04-23	1,2,3,4,5				1993-09-01		
3	-1288520	-1869154	-34.316667	18.433333	34:19:00S	18:26:00E	34HBG6382899748	SI34-09	L	LCTY		SF	11				N				SUURDAM	Suurdam	Suurdam	SUURDAM	Suurdam	Suurdam		2004-04-23	1,2,3,4,5	1			1993-09-01		
3	-1286633	-1866972	-30.083333	25.366667	30:05:00S	25:22:00E	35JLG4259070856	SH35-09	L	AREA		SF	03				D				SPRINGRIDGE	Springridge	Springridge	SPRINGRIDGE	Springridge	Springridge		2004-04-29	1,2,3,4,5	1			1993-09-01		
3	-1292322	-1862632	-22.833333	30.883333	22:50:00S	30:53:00E	36KTV8278173373	SF36-09	L	LCTY		SF	09				V				SHILAMGANINI	Shilamganini	Shilamganini	SHILAMGANINI	Shilamganini	Shilamganini		2004-05-11	1,2,3,4,5				1993-09-01		
3	-1292322	-1873581	-22.833333	30.883333	22:50:00S	30:53:00E	36KTV8278173373	SF36-09	L	LCTY		SF	09				N				TSHIKUNDUSLOCATION	Tshikundu’s Location	Tshikundu's Location	TSHIKUNDUSLOCATION	Tshikundu’s Location	Tshikundu's Location		2004-05-11	1,2,3,4,5	1			1993-09-01		
3	-1286287	-1866527	-28.383333	21.183333	28:23:00S	21:11:00E	34JEP1796260319	SH34-03	L	RESN		SF	08				N				SPITSKOPNATUURTUIN	Spitskop Natuurtuin	Spitskop Natuurtuin	SPITSKOPNATUURTUIN	Spitskop Natuurtuin	Spitskop Natuurtuin		2004-04-28	1,2,3,4,5	1			1993-09-01		
3	-1286287	-1866526	-28.383333	21.183333	28:23:00S	21:11:00E	34JEP1796260319	SH34-03	L	RESN		SF	08				V				SPITSKOPNATURERESERVE	Spitskop Nature Reserve	Spitskop Nature Reserve	SPITSKOPNATURERESERVE	Spitskop Nature Reserve	Spitskop Nature Reserve		2004-04-28	1,2,3,4,5				1993-09-01		
3	-1284767	-1864814	-29.766667	19.366667	29:46:00S	19:22:00E	34JCN4209105952	SH34-05	L	AREA		SF	08				D				SMOUSVLEI	Smousvlei	Smousvlei	SMOUSVLEI	Smousvlei	Smousvlei		2004-04-28	1,2,3,4,5	1			1993-09-01		
3	-1291290	-1872337	-23.75	27.55	23:45:00S	27:33:00E	35KNP5604973343	SF35-15	L	RESN		SF	09				D				TIERKOPPRIVATENATURERESERVE	Tierkop Private Nature Reserve	Tierkop Private Nature Reserve	TIERKOPPRIVATENATURERESERVE	Tierkop Private Nature Reserve	Tierkop Private Nature Reserve		2004-05-11	1,2,3,4,5	1			1993-09-01		
3	-1294460	-1876283	-24.866667	20.033333	24:52:00S	20:02:00E	34JDT0234649469	SG34-02	L	LCTY		SF	08				N				UNIONSEND	Unions End	Unions End	UNIONSEND	Unions End	Unions End		2004-04-28	1,2,3,4,5	1			1993-09-01		
3	-1291511	-1872611	-27.35	24.133333	27:21:00S	24:08:00E	35JKK1640071537	SG35-13	L	RES		SF	10				D				TLHARINGNATURELLERESERWE	Tlharing Naturellereserwe	Tlharing Naturellereserwe	TLHARINGNATURELLERESERWE	Tlharing Naturellereserwe	Tlharing Naturellereserwe		2004-04-30	1,2,3,4,5	1			1993-09-01		
3	-1291638	-1872766	-32.4	27.933333	32:24:00S	27:56:00E	35HNE8777514843	SI35-03	L	AREA		SF	05				D				TOLENI	Toleni	Toleni	TOLENI	Toleni	Toleni		2004-04-27	1,2,3,4,5	1			1993-09-01		
3	-1291956	-1873157	-31.5	29	31:30:00S	29:00:00E	35JPF8994613251	SH35-16	L	RGN		SF	05				N				TRANSKEI	Transkei	Transkei	TRANSKEI	Transkei	Transkei		2004-04-27	1,2,3,4,5	1			1993-09-01		
3	-1289447	-1870224	-32.8	27.116667	32:48:00S	27:07:00E	35HND1092370879	SI35-03	L	LCTY		SF	05				N				TABAKANDODA	Taba Ka Ndoda	Taba Ka Ndoda	TABAKANDODA	Taba Ka Ndoda	Taba Ka Ndoda		2004-04-27	1,2,3,4,5	1			1993-09-01		
3	-1280204	-1859318	-24.816667	31.483333	24:49:00S	31:29:00E	36JUT4671654501	SG36-01	L	LCTY		SF	07				N				SABIESAND	Sabie-Sand	Sabie-Sand	SABIESAND	Sabie-Sand	Sabie-Sand		2004-05-11	1,2,3,4,5	1			1993-09-01		
3	-1293187	-1874554	-34.116667	19.966667	34:07:00S	19:58:00E	34HDH0470324426	SI34-10	L	RESF		SF	11				D				TWISTWYKBOSRESERWE	Twistwyk-Bosreserwe	Twistwyk-Bosreserwe	TWISTWYKBOSRESERWE	Twistwyk-Bosreserwe	Twistwyk-Bosreserwe		2004-04-23	1,2,3,4,5	1			1993-09-01		
3	-1293187	-1874555	-34.116667	19.966667	34:07:00S	19:58:00E	34HDH0470324426	SI34-10	L	RESF		SF	11				V				TWISTWYKFORESTRESERVE	Twistwyk Forest Reserve	Twistwyk Forest Reserve	TWISTWYKFORESTRESERVE	Twistwyk Forest Reserve	Twistwyk Forest Reserve		2004-04-23	1,2,3,4,5				1993-09-01		
3	-1301035	-1883712	-28.683333	20.166667	28:41:00S	20:10:00E	34JDP1858626813	SH34-02	L	LCTY		SF	08				N				WIELDRAAIVELPIEPIE	Wieldraai Velpiepie	Wieldraai Velpiepie	WIELDRAAIVELPIEPIE	Wieldraai Velpiepie	Wieldraai Velpiepie		2004-04-28	1,2,3,4,5	1			1993-09-01		
3	-1294845	-1876757	-26.883333	28.166667	26:53:00S	28:10:00E	35JPL1587525953	SG35-11	L	RESN		SF	06				N				VAALDAMNATUURRESERVAAT	Vaaldamnatuurreservaat	Vaaldamnatuurreservaat	VAALDAMNATUURRESERVAAT	Vaaldamnatuurreservaat	Vaaldamnatuurreservaat		2004-05-11	1,2,3,4,5	1			1993-09-01		
3	-1297948	-1880287	-33.15	21.166667	33:09:00S	21:10:00E	34HEJ1554332071	SI34-07	L	LCTY		SF	11				N				VOORSAAI	Voor Saai	Voor Saai	VOORSAAI	Voor Saai	Voor Saai		2004-04-23	1,2,3,4,5	1			1993-09-01		
3	-1276252	-1854953	-31.2	17.95	31:12:00S	17:57:00E	33JYF8109344482	SH33-12	L	AREA		SF	11				D				RIETFONTEINSNEK	Rietfonteinsnek	Rietfonteinsnek	RIETFONTEINSNEK	Rietfonteinsnek	Rietfonteinsnek		2004-04-23	1,2,3,4,5	1			1993-09-01		
3	-1278488	-1857441	-32.183333	21.316667	32:11:00S	21:19:00E	34HEK2985139199	SI34-03	L	LCTY		SF	08				N				ROOIHOEK	Rooihoek	Rooihoek	ROOIHOEK	Rooihoek	Rooihoek		2004-04-29	1,2,3,4,5	1			1993-09-01		
3	-1282375	-1861973	-25.433333	26.916667	25:26:00S	26:55:00E	35JMM9162187066	SG35-06	L	AREA		SF	10				D				SELONSLOKASIE	Selonslokasie	Selonslokasie	SELONSLOKASIE	Selonslokasie	Selonslokasie		2004-04-30	1,2,3,4,5	1			1993-09-01		
3	-1294592	-1876465	-25.483333	20.25	25:29:00S	20:15:00E	34JDS2461581319	SG34-06	L	LCTY		SF	08				N				URIPQUA	Urip Qua	Urip Qua	URIPQUA	Urip Qua	Urip Qua		2004-04-28	1,2,3,4,5	1			1993-09-01		
3	-1291372	-1872435	-24.266667	31.65	24:16:00S	31:39:00E	36JUU6296615586	SG36-02	L	PRK		SF	07				N				TIMBAVATI	Timbavati	Timbavati	TIMBAVATI	Timbavati	Timbavati		2004-05-11	1,2,3,4,5	1			1993-09-01		
3	-1291371	-1872434	-24.316667	31.333333	24:19:00S	31:20:00E	36JUU3088309700	SG36-01	L	LCTY		SF	09				N				TIMBAVATI	Timbavati	Timbavati	TIMBAVATI	Timbavati	Timbavati		2004-05-11	1,2,3,4,5	1			1993-09-01		
3	-1300891	-1883541	-26.35	27.5	26:21:00S	27:30:00E	35JNL4989085458	SG35-11	L	LCTY		SF	06				D				WESTWITS	West Wits	West Wits	WESTWITS	West Wits	West Wits		2004-05-11	1,2,3,4,5	1			1993-09-01		
3	-1300987	-1883654	-28.316667	25.2	28:19:00S	25:12:00E	35JLJ2352366403	SH35-01	L	AREA		SF	03				D				WHITESIDE	Whiteside	Whiteside	WHITESIDE	Whiteside	Whiteside		2004-04-29	1,2,3,4,5	1			1993-09-01		
3	-1268888	-1846295	-27.95	22.7	27:57:00S	22:42:00E	34JFQ6723907173	SG34-16	L	AREA		SF	08				N				OLIFANTSHOEKALLOTMENTAREA	Olifantshoek Allotment Area	Olifantshoek Allotment Area	OLIFANTSHOEKALLOTMENTAREA	Olifantshoek Allotment Area	Olifantshoek Allotment Area		2004-04-29	1,2,3,4,5	1			1993-09-01		
3	-1299094	-1881584	-32.433333	27.433333	32:26:00S	27:26:00E	35HNE4073711448	SI35-03	L	AREA		SF	05				D				WARTBURG	Wartburg	Wartburg	WARTBURG	Wartburg	Wartburg		2004-04-27	1,2,3,4,5	1			1993-09-01		
3	-1264904	-1841455	-32.516667	28.383333	32:31:00S	28:23:00E	35HPE2993101450	SI35-03	L	AREA		SF	05				D				NCERANA	Ncerana	Ncerana	NCERANA	Ncerana	Ncerana		2004-04-27	1,2,3,4,5	1			1993-09-01		
3	-1264586	-1841051	-25.65	20.433333	25:39:00S	20:26:00E	34JDS4312262954	SG34-06	L	LCTY		SF	08				N				NAMABIES	Namabies	Namabies	NAMABIES	Namabies	Namabies		2004-04-29	1,2,3,4,5	1			1993-09-01		
3	-1263541	-1839768	-32.316667	27.85	32:19:00S	27:51:00E	35HNE8001124146	SI35-03	L	AREA		SF	05				D				MPUKANE	Mpukane	Mpukane	MPUKANE	Mpukane	Mpukane		2004-04-27	1,2,3,4,5	1			1993-09-01		
3	-1279862	-1858943	-25.216667	28.633333	25:13:00S	28:38:00E	35JPN6454310061	SG35-08	L	LCTY		SF	09				N				RUSTDEWINTER	Rust de Winter	Rust de Winter	RUSTDEWINTER	Rust de Winter	Rust de Winter		2004-05-11	1,2,3,4,5	1			1993-09-01		
3	-1279862	-1858948	-25.216667	28.633333	25:13:00S	28:38:00E	35JPN6454310061	SG35-08	L	LCTY		SF	09				V				RUSTDEWINTERNATUURRESERWE	Rust Dewinter Natuurreserwe	Rust Dewinter Natuurreserwe	RUSTDEWINTERNATUURRESERWE	Rust Dewinter Natuurreserwe	Rust Dewinter Natuurreserwe		2004-05-11	1,2,3,4,5				1993-09-01		
3	-1290895	-1871906	-28.083333	25.116667	28:05:00S	25:07:00E	35JLJ1495092134	SH35-01	L	AREA		SF	03				D				THORNBURTON	Thornburton	Thornburton	THORNBURTON	Thornburton	Thornburton		2004-04-29	1,2,3,4,5	1			1993-09-01		
3	-1293246	-1874619	-33.15	27	33:09:00S	27:00:00E	35HND0000032084	SI35-07	L	LCTY		SF	05				N				TYEFUS	Tyefus	Tyefus	TYEFUS	Tyefus	Tyefus		2004-04-27	1,2,3,4,5	1			1993-09-01		
3	-1263422	-1810466	-30.65	29.633333	30:39:00S	29:38:00E	35JQG5235006228	SH35-12	L	RESF		SF	02				V				IMPTYNE	Imptyne	Imptyne	IMPTYNE	Imptyne	Imptyne		2004-04-27	1,2,3,4,5				1993-09-01		
3	-1263422	-1810452	-30.65	29.633333	30:39:00S	29:38:00E	35JQG5235006228	SH35-12	L	RESF		SF	02				V				IMPETYNEFOREST	Impetyne Forest	Impetyne Forest	IMPETYNEFOREST	Impetyne Forest	Impetyne Forest		2004-04-27	1,2,3,4,5				1993-09-01		
3	-1263422	-1839623	-30.65	29.633333	30:39:00S	29:38:00E	35JQG5235006228	SH35-12	L	RESF		SF	02				D				MPETYNEFOREST	Mpetyne Forest	Mpetyne Forest	MPETYNEFOREST	Mpetyne Forest	Mpetyne Forest		2004-04-27	1,2,3,4,5	1			1993-09-01		
3	-1272612	-1850647	-30.783333	28.383333	30:47:00S	28:23:00E	35JPF3236593592	SH35-11	L	LCTY		SF	05				N				PITSENG	Pitseng	Pitseng	PITSENG	Pitseng	Pitseng		2004-04-27	1,2,3,4,5	1			1993-09-01		
3	-1274315	-1852654	-32.133333	28.983333	32:08:00S	28:59:00E	35HPE8708143063	SI35-04	L	RESF		SF	05				D				QORANAFOREST	Qorana Forest	Qorana Forest	QORANAFOREST	Qorana Forest	Qorana Forest		2004-04-27	1,2,3,4,5	1			1993-09-01		
3	-1282354	-1861946	-23.2	27.933333	23:12:00S	27:56:00E	35KNQ9551134034	SF35-15	L	AREA		SF	09				D				SELEKASLOKASIE	Selekaslokasie	Selekaslokasie	SELEKASLOKASIE	Selekaslokasie	Selekaslokasie		2004-05-11	1,2,3,4,5	1			1993-09-01		
3	-1282641	-1862289	-22.983333	30.183333	22:59:00S	30:11:00E	36KTV1122755552	SF36-09	L	AREA		SF	09				D				SEVILLE	Seville	Seville	SEVILLE	Seville	Seville		2004-05-11	1,2,3,4,5	1			1993-09-01		
3	-1272669	-1850731	-30.85	24.783333	30:51:00S	24:47:00E	35JKF8802884918	SH35-09	L	AREA		SF	08				D				PLAAUWSKOP	Plaauwskop	Plaauwskop	PLAAUWSKOP	Plaauwskop	Plaauwskop		2004-04-29	1,2,3,4,5	1			1993-09-01		
3	-1279625	-1858674	-34.333333	20.25	34:20:00S	20:15:00E	34HDH3101000629	SI34-10	L	RGN		SF	11				N				RUENS	Rûens	Ruens	RUENS	Rûens	Ruens		2004-04-23	1,2,3,4,5	1			1993-09-01		
3	-1295798	-1877833	-26.85	22.033333	26:51:00S	22:02:00E	34JFR0266129760	SG34-11	L	AREA		SF	08				D				VANZYL	Van Zyl	Van Zyl	VANZYL	Van Zyl	Van Zyl		2004-11-04	1,2,3,4,5	1			1993-09-01		
3	-1289121	-1869858	-31.383333	27.466667	31:23:00S	27:28:00E	35JNF4437227820	SH35-15	L	LCTY		SF	05				N				SWEETHOEK	Sweethoek	Sweethoek	SWEETHOEK	Sweethoek	Sweethoek		2004-04-27	1,2,3,4,5	1			1993-09-01		
3	-1270419	-1848091	-26.316667	20.616667	26:19:00S	20:37:00E	34JDR6174089190	SG34-10	L	LCTY		SF	08				N				OUPSOUTHAFRICANMOUNTEDRIFLESRESERVE	Oup South African Mounted Rifles Reserve	Oup South African Mounted Rifles Reserve	OUPSOUTHAFRICANMOUNTEDRIFLESRESERVE	Oup South African Mounted Rifles Reserve	Oup South African Mounted Rifles Reserve		2004-04-29	1,2,3,4,5	1			1993-09-01		
3	-1260561	-1836266	-25.983333	20.033333	25:59:00S	20:02:00E	34JDS0324225804	SG34-06	L	LCTY		SF	08				N				MIERKLEURLINGNEDERSETTING	Mier Kleurling-Nedersetting	Mier Kleurling-Nedersetting	MIERKLEURLINGNEDERSETTING	Mier Kleurling-Nedersetting	Mier Kleurling-Nedersetting		2004-04-29	1,2,3,4,5	1			1993-09-01		
3	-1260560	-1836265	-26.066667	20.05	26:04:00S	20:03:00E	34JDS0497716587	SG34-10	L	LCTY		SF	08				N				MIERKLEURLINGGEBIED	Mier Kleurlinggebied	Mier Kleurlinggebied	MIERKLEURLINGGEBIED	Mier Kleurlinggebied	Mier Kleurlinggebied		2004-04-29	1,2,3,4,5	1			1993-09-01		
3	-1273995	-1852258	-33.116667	26.716667	33:07:00S	26:43:00E	35HMD7356735744	SI35-06	L	RESN		SF	05				N				PROVINCIALNATURERESERVE	Provincial Nature Reserve	Provincial Nature Reserve	PROVINCIALNATURERESERVE	Provincial Nature Reserve	Provincial Nature Reserve		2004-04-27	1,2,3,4,5	1			1993-09-01		
3	-1298203	-1880557	-28.083333	17.166667	28:05:00S	17:10:00E	33JYJ1289791671	SH33-04	L	AREA		SF	08				D				VREDEHOEK	Vredehoek	Vredehoek	VREDEHOEK	Vredehoek	Vredehoek		2004-12-22	1,2,3,4,5	1			1993-09-01		
3	-1297395	-1879618	-29.616667	19.7	29:37:00S	19:42:00E	34JCN7413322984	SH34-06	L	LCTY		SF	08				N				VLEIKOLK	Vleikolk	Vleikolk	VLEIKOLK	Vleikolk	Vleikolk		2004-04-28	1,2,3,4,5	1			1993-09-01		
3	-1278696	-1857662	-25.45	20.566667	25:27:00S	20:34:00E	34JDS5643385152	SG34-06	L	LCTY		SF	08				N				ROOIKOP	Rooikop	Rooikop	ROOIKOP	Rooikop	Rooikop		2004-04-29	1,2,3,4,5	1			1993-09-01		
3	-1286409	-1866721	-25	27.283333	25:00:00S	27:17:00E	35JNN2859135022	SG35-03	L	RESN		SF	10				D				SPORTINGCHANCENATURERESERVE	Sporting Chance Nature Reserve	Sporting Chance Nature Reserve	SPORTINGCHANCENATURERESERVE	Sporting Chance Nature Reserve	Sporting Chance Nature Reserve		2004-04-30	1,2,3,4,5	1			1993-09-01		
3	-1292457	-1873744	-34.016667	23.916667	34:01:00S	23:55:00E	34HGH6933932159	SI34-08	L	PRK		SF	05				N				TSITSIKAMMABOSENSEEKUSNASIONALEPARK	Tsitsikammabos en Seekus Nasionale Park	Tsitsikammabos en Seekus Nasionale Park	TSITSIKAMMABOSENSEEKUSNASIONALEPARK	Tsitsikammabos en Seekus Nasionale Park	Tsitsikammabos en Seekus Nasionale Park		2004-04-27	1,2,3,4,5	1			1993-09-01		
3	-1292457	-1873735	-34.016667	23.916667	34:01:00S	23:55:00E	34HGH6933932159	SI34-08	L	PRK		SF	05				V				TSITSIKAMABOSRESERWE	Tsitsikama Bosreserwe	Tsitsikama Bosreserwe	TSITSIKAMABOSRESERWE	Tsitsikama Bosreserwe	Tsitsikama Bosreserwe		2004-04-27	1,2,3,4,5				1993-09-01		
3	-1292457	-1873732	-34.016667	23.916667	34:01:00S	23:55:00E	34HGH6933932159	SI34-08	L	PRK		SF	05				V				TSITSIKAMA	Tsitsikama	Tsitsikama	TSITSIKAMA	Tsitsikama	Tsitsikama		2004-04-27	1,2,3,4,5				1993-09-01		
3	-1292457	-1873736	-34.016667	23.916667	34:01:00S	23:55:00E	34HGH6933932159	SI34-08	L	PRK		SF	05				V				TSITSIKAMAFORESTANDCOASTALNATIONALPARK	Tsitsikama Forest and Coastal National Park	Tsitsikama Forest and Coastal National Park	TSITSIKAMAFORESTANDCOASTALNATIONALPARK	Tsitsikama Forest and Coastal National Park	Tsitsikama Forest and Coastal National Park		2004-04-27	1,2,3,4,5				1993-09-01		
3	-1259727	-1835304	-32.066667	28.75	32:04:00S	28:45:00E	35HPE6518850835	SI35-04	L	AREA		SF	05				D				MGAZANA	Mgazana	Mgazana	MGAZANA	Mgazana	Mgazana		2004-04-27	1,2,3,4,5	1			1993-09-01		
3	-1259718	-1835295	-30.233333	30.433333	30:14:00S	30:26:00E	36JTM5299152572	SH36-09	L	LCTY		SF	02				N				MGANGENI	Mgangeni	Mgangeni	MGANGENI	Mgangeni	Mgangeni		2004-04-27	1,2,3,4,5	1			1993-09-01		
3	-1280687	-1859932	-29.6	19.566667	29:36:00S	19:34:00E	34JCN6120024679	SH34-06	L	LCTY		SF	08				N				SANDCOUBEEP	Sand Coubeep	Sand Coubeep	SANDCOUBEEP	Sand Coubeep	Sand Coubeep		2004-04-28	1,2,3,4,5	1			1993-09-01		
3	-1294167	-1875652	-28.316667	31.433333	28:19:00S	31:26:00E	36JUP4640366722	SH36-01	L	AREA		SF	02				D				ULUNDIBATTLEFIELDS	Ulundi Battlefields	Ulundi Battlefields	ULUNDIBATTLEFIELDS	Ulundi Battlefields	Ulundi Battlefields		2004-04-27	1,2,3,4,5	1			1993-09-01		
3	-1296553	-1878685	-28.616667	25.416667	28:37:00S	25:25:00E	35JLJ4520733459	SH35-01	L	AREA		SF	03				D				VERWISSELING	Verwisseling	Verwisseling	VERWISSELING	Verwisseling	Verwisseling		2004-04-29	1,2,3,4,5	1			1993-09-01		
3	-1268473	-1845817	-30.466667	30.55	30:28:00S	30:33:00E	36JTM6478126951	SH36-09	L	RES		SF	02				D				NYONGWENILOCATION	Nyongweni Location	Nyongweni Location	NYONGWENILOCATION	Nyongweni Location	Nyongweni Location		2004-04-27	1,2,3,4,5	1			1993-09-01		
3	-1267952	-1845174	-32.033333	27.45	32:02:00S	27:27:00E	35HNE4249055781	SI35-03	L	AREA		SF	05				D				NTSHINGENI	Ntshingeni	Ntshingeni	NTSHINGENI	Ntshingeni	Ntshingeni		2004-04-27	1,2,3,4,5	1			1993-09-01		
3	-1267932	-1845154	-30.1	30.433333	30:06:00S	30:26:00E	36JTM5265867354	SH36-09	L	LCTY		SF	02				N				NTSHAMANZI	Ntshamanzi	Ntshamanzi	NTSHAMANZI	Ntshamanzi	Ntshamanzi		2004-04-27	1,2,3,4,5	1			1993-09-01		
3	-1299225	-1881733	-30.366667	30.383333	30:22:00S	30:23:00E	36JTM4851837680	SH36-09	L	RESF		SF	02				D				WATERFALLFORESTRESERVE	Waterfall Forest Reserve	Waterfall Forest Reserve	WATERFALLFORESTRESERVE	Waterfall Forest Reserve	Waterfall Forest Reserve		2004-04-27	1,2,3,4,5	1			1993-09-01		
3	-1265947	-1842716	-32.3	28.766667	32:18:00S	28:46:00E	35HPE6633724940	SI35-04	L	LCTY		SF	05				N				NGWANE	Ngwane	Ngwane	NGWANE	Ngwane	Ngwane		2004-04-27	1,2,3,4,5	1			1993-09-01		
3	-1263306	-1839480	-22.866667	30.65	22:52:00S	30:39:00E	36KTV5888569318	SF36-09	L	LCTY		SF	09				D				MPAFURISLOCATION	Mpafuri’s Location	Mpafuri's Location	MPAFURISLOCATION	Mpafuri’s Location	Mpafuri's Location		2004-05-11	1,2,3,4,5	1			1993-09-01		
3	-1287618	-1868102	-31.166667	21.866667	31:10:00S	21:52:00E	34JEL8259551604	SH34-15	L	AREA		SF	08				D				STOFKRAAL	Stofkraal	Stofkraal	STOFKRAAL	Stofkraal	Stofkraal		2004-04-28	1,2,3,4,5	1			1993-09-01		
3	-1274187	-1852491	-32.166667	28.466667	32:10:00S	28:28:00E	35HPE3829040148	SI35-03	L	AREA		SF	05				D				QAKAZANA	Qakazana	Qakazana	QAKAZANA	Qakazana	Qakazana		2004-04-27	1,2,3,4,5	1			1993-09-01		
3	-1276575	-1855292	-32.233333	20.916667	32:14:00S	20:55:00E	34HDK9214933698	SI34-02	L	LCTY		SF	08				N				RIETPOORT	Rietpoort	Rietpoort	RIETPOORT	Rietpoort	Rietpoort		2004-04-29	1,2,3,4,5	1			1993-09-01		
3	-1268315	-1845620	-32.266667	28.466667	32:16:00S	28:28:00E	35HPE3813929062	SI35-03	L	AREA		SF	05				D				NXANXASHE	Nxanxashe	Nxanxashe	NXANXASHE	Nxanxashe	Nxanxashe		2004-04-27	1,2,3,4,5	1			1993-09-01		
3	-1267855	-1845058	-32.183333	28.45	32:11:00S	28:27:00E	35HPE3669338322	SI35-03	L	AREA		SF	05				D				NTLABANE	Ntlabane	Ntlabane	NTLABANE	Ntlabane	Ntlabane		2004-04-27	1,2,3,4,5	1			1993-09-01		
3	-1255546	-1830187	-28.95	17.2	28:57:00S	17:12:00E	33JYH1441195561	SH33-04	L	LCTY		SF	08				N				MAERFONTEIN	Maerfontein	Maerfontein	MAERFONTEIN	Maerfontein	Maerfontein		2004-04-29	1,2,3,4,5	1			1993-09-01		
3	-1293021	-1874370	-30.383333	18.65	30:23:00S	18:39:00E	34JBM7419336394	SH34-09	L	LCTY		SF	08				N				TWEELINGDAM	Tweelingdam	Tweelingdam	TWEELINGDAM	Tweelingdam	Tweelingdam		2004-04-28	1,2,3,4,5	1			1993-09-01		
3	-1288637	-1869298	-30.416667	19.883333	30:25:00S	19:53:00E	34JCM9274934514	SH34-10	L	LCTY		SF	08				N				SWARTBAKEN	Swartbaken	Swartbaken	SWARTBAKEN	Swartbaken	Swartbaken		2004-04-28	1,2,3,4,5	1			1993-09-01		
3	-1267706	-1844876	-30.1	30.35	30:06:00S	30:21:00E	36JTM4462567171	SH36-09	L	LCTY		SF	02				N				NTABANE	Ntabane	Ntabane	NTABANE	Ntabane	Ntabane		2004-04-27	1,2,3,4,5	1			1993-09-01		
3	-1268384	-1845714	-22.683333	31.366667	22:41:00S	31:22:00E	36KUV3221090612	SF36-09	L	AREA		SF	09				D				NYANDU	Nyandu	Nyandu	NYANDU	Nyandu	Nyandu		2004-05-11	1,2,3,4,5	1			1993-09-01		
3	-1278579	-1857538	-29.9	20.616667	29:54:00S	20:37:00E	34JDM6299192234	SH34-06	L	LCTY		SF	08				N				ROOIKNOP	Rooiknop	Rooiknop	ROOIKNOP	Rooiknop	Rooiknop		2004-04-29	1,2,3,4,5	1			1993-09-01		
3	-1273260	-1851402	-31.333333	29.5	31:20:00S	29:30:00E	35JQF3786630756	SH35-16	L	RGN		SF	05				D				PONDOLAND	Pondoland	Pondoland	PONDOLAND	Pondoland	Pondoland		2004-04-27	1,2,3,4,5	1			1993-09-01		
3	-1268736	-1846122	-25.35	20.05	25:21:00S	20:03:00E	34JDS0440695957	SG34-06	L	LCTY		SF	08				N				OKUIP	O’Kuip	O'Kuip	OKUIP	O’Kuip	O'Kuip		2004-04-29	1,2,3,4,5	1			1993-09-01		
3	-1263362	-1839551	-22.933333	30.516667	22:56:00S	30:31:00E	36KTV4532461709	SF36-09	L	LCTY		SF	09				D				MPAPULILOCATION	Mpapuli Location	Mpapuli Location	MPAPULILOCATION	Mpapuli Location	Mpapuli Location		2004-05-11	1,2,3,4,5	1			1993-09-01		
3	-1294564	-1876426	-28.8	29.15	28:48:00S	29:09:00E	35JQJ0983812275	SH35-04	L	AREA		SF	02				N				UPPERTUGELALOCATION	Upper Tugela Location	Upper Tugela Location	UPPERTUGELALOCATION	Upper Tugela Location	Upper Tugela Location		2004-04-27	1,2,3,4,5	1			1993-09-01		
3	-1297095	-1879289	-30.1	25.8	30:06:00S	25:48:00E	35JLG8437569526	SH35-10	L	LCTY		SF	03				D				VLAKFONTEIN	Vlakfontein	Vlakfontein	VLAKFONTEIN	Vlakfontein	Vlakfontein		2004-04-29	1,2,3,4,5	1			1993-09-01		
3	-1285290	-1865424	-30.983333	17.983333	30:59:00S	17:59:00E	33JYF8491868424	SH33-12	L	LCTY		SF	11				N				SOUTFONTEIN	Soutfontein	Soutfontein	SOUTFONTEIN	Soutfontein	Soutfontein		2004-04-23	1,2,3,4,5	1			1993-09-01		
3	-1267543	-1844670	-32.35	28.433333	32:21:00S	28:26:00E	35HPE3487519866	SI35-03	L	AREA		SF	05				D				NQAQINI	Nqaqini	Nqaqini	NQAQINI	Nqaqini	Nqaqini		2004-04-27	1,2,3,4,5	1			1993-09-01		
3	-1265838	-1842582	-32.233333	28.016667	32:14:00S	28:01:00E	35HNE9578833247	SI35-03	L	AREA		SF	05				D				NGQAMAKWE	Ngqamakwe	Ngqamakwe	NGQAMAKWE	Ngqamakwe	Ngqamakwe		2004-04-27	1,2,3,4,5	1			1993-09-01		
3	-1283665	-1863565	-32.95	27.3	32:57:00S	27:18:00E	35HND2804154216	SI35-03	L	AREA		SF	05				D				SIWANIS	Siwanis	Siwanis	SIWANIS	Siwanis	Siwanis		2004-04-27	1,2,3,4,5	1			1993-09-01		
3	-1301998	-1884846	-30.716667	18.083333	30:43:00S	18:05:00E	34JBL2067998164	SH34-09	L	LCTY		SF	08				N				WITBAKEN	Witbaken	Witbaken	WITBAKEN	Witbaken	Witbaken		2004-04-28	1,2,3,4,5	1			1993-09-01		
3	-1301991	-1884839	-29.85	19.15	29:51:00S	19:09:00E	34JCM2128896399	SH34-05	L	LCTY		SF	08				N				WITAAR	Wit-Aar	Wit-Aar	WITAAR	Wit-Aar	Wit-Aar		2004-04-28	1,2,3,4,5	1			1993-09-01		
3	-1272214	-1850172	-25	27.333333	25:00:00S	27:20:00E	35JNN3363735011	SG35-03	L	RESN		SF	09				D				PHILIPWULFSOHNPRIVATENATURERESERVE	Philip Wulfsohn Private Nature Reserve	Philip Wulfsohn Private Nature Reserve	PHILIPWULFSOHNPRIVATENATURERESERVE	Philip Wulfsohn Private Nature Reserve	Philip Wulfsohn Private Nature Reserve		2004-05-11	1,2,3,4,5	1			1993-09-01		
3	-1265413	-1842067	-31.85	24.533333	31:51:00S	24:32:00E	35JKE6659973538	SH35-13	L	AREA		SF	05				N				NEWBETHESDAALLOTMENTAREA	New Bethesda Allotment Area	New Bethesda Allotment Area	NEWBETHESDAALLOTMENTAREA	New Bethesda Allotment Area	New Bethesda Allotment Area		2004-04-27	1,2,3,4,5	1			1993-09-01		
3	-1263708	-1839975	-33.333333	27.116667	33:20:00S	27:07:00E	35HND1085711753	SI35-07	L	LCTY		SF	05				N				MSUTU	Msutu	Msutu	MSUTU	Msutu	Msutu		2004-04-27	1,2,3,4,5	1			1993-09-01		
3	-1274264	-1852594	-32.4	28.283333	32:24:00S	28:17:00E	35HPE2069314502	SI35-03	L	AREA		SF	05				D				QOBOQOBO	Qoboqobo	Qoboqobo	QOBOQOBO	Qoboqobo	Qoboqobo		2004-04-27	1,2,3,4,5	1			1993-09-01		
3	-1285651	-1865844	-32.266667	22.816667	32:16:00S	22:49:00E	34HFK7110828557	SI34-04	L	LCTY		SF	11				N				SPEELMANSKUIL	Speelmanskuil	Speelmanskuil	SPEELMANSKUIL	Speelmanskuil	Speelmanskuil		2004-04-23	1,2,3,4,5	1			1993-09-01		
3	-1299916	-1882487	-31.5	20.633333	31:30:00S	20:38:00E	34JDL6518014925	SH34-14	L	AREA		SF	08				D				WELGEDAGT	Welgedagt	Welgedagt	WELGEDAGT	Welgedagt	Welgedagt		2004-04-28	1,2,3,4,5	1			1993-09-01		
3	-1289231	-1869976	-31.466667	20.45	31:28:00S	20:27:00E	34JDL4775118547	SH34-14	L	LCTY		SF	08				N				SYFER	Syfer	Syfer	SYFER	Syfer	Syfer		2004-04-28	1,2,3,4,5	1			1993-09-01		
3	-1274307	-1852643	-28.6	28.916667	28:36:00S	28:55:00E	35JPJ8741634829	SH35-04	L	LCTY		SF	03				N				QOQOLOSING	Qoqolosing	Qoqolosing	QOQOLOSING	Qoqolosing	Qoqolosing		2004-04-29	1,2,3,4,5	1			1993-09-01		
3	-1274288	-1852620	-32.516667	28.266667	32:31:00S	28:16:00E	35HPE1897201586	SI35-03	L	AREA		SF	05				D				QOLORAF	Qolora F	Qolora F	QOLORAF	Qolora F	Qolora F		2004-04-27	1,2,3,4,5	1			1993-09-01		
3	-1273139	-1851250	-28.566667	24.316667	28:34:00S	24:19:00E	35JKJ3750937082	SH35-01	L	AREA		SF	08				D				PNIELESTATES	Pniel Estates	Pniel Estates	PNIELESTATES	Pniel Estates	Pniel Estates		2004-04-29	1,2,3,4,5	1			1993-09-01		
3	-1248095	-1821519	-31.566667	20.366667	31:34:00S	20:22:00E	34JDL3989807420	SH34-14	L	LCTY		SF	08				N				KRANSGAT	Kransgat	Kransgat	KRANSGAT	Kransgat	Kransgat		2004-04-29	1,2,3,4,5	1			1993-09-01		
3	-1265535	-1842198	-32.883333	27.75	32:53:00S	27:45:00E	35HND7015561397	SI35-03	L	LCTY		SF	05				N				NEWLANDS	Newlands	Newlands	NEWLANDS	Newlands	Newlands		2004-04-27	1,2,3,4,5	1			1993-09-01		
3	-1265277	-1841911	-25.15	20.116667	25:09:00S	20:07:00E	34JDT1096918151	SG34-06	L	LCTY		SF	08				N				NELSIESPAN	Nelsies Pan	Nelsies Pan	NELSIESPAN	Nelsies Pan	Nelsies Pan		2004-04-29	1,2,3,4,5	1			1993-09-01		
3	-1264947	-1841510	-30.633333	28.666667	30:38:00S	28:40:00E	35JPG5972709849	SH35-12	L	RES		SF	05				D				NCOMELOKASIE	Ncome Lokasie	Ncome Lokasie	NCOMELOKASIE	Ncome Lokasie	Ncome Lokasie		2004-04-27	1,2,3,4,5	1			1993-09-01		
3	-1247269	-1820522	-26.9	20.683333	26:54:00S	20:41:00E	34JDR6855424601	SG34-10	L	LCTY		SF	08				V				KOOPANNOORDSTORE	Koopan Noord Store	Koopan Noord Store	KOOPANNOORDSTORE	Koopan Noord Store	Koopan Noord Store		2004-04-29	1,2,3,4,5				1993-09-01		
3	-1247269	-1820521	-26.9	20.683333	26:54:00S	20:41:00E	34JDR6855424601	SG34-10	L	LCTY		SF	08				N				KOOPANNOORD	Koopan-Noord	Koopan-Noord	KOOPANNOORD	Koopan-Noord	Koopan-Noord		2004-04-29	1,2,3,4,5	1			1993-09-01		
3	-1264926	-1841485	-32.166667	27.866667	32:10:00S	27:52:00E	35HNE8171440761	SI35-03	L	AREA		SF	05				D				NCISININDE	Ncisininde	Ncisininde	NCISININDE	Ncisininde	Ncisininde		2004-04-27	1,2,3,4,5	1			1993-09-01		
3	-1239039	-1810423	-25.066667	27.3	25:04:00S	27:18:00E	35JNN3025727637	SG35-07	L	RESN		SF	10				D				IMPALARANCHNATURERESERVE	Impala Ranch Nature Reserve	Impala Ranch Nature Reserve	IMPALARANCHNATURERESERVE	Impala Ranch Nature Reserve	Impala Ranch Nature Reserve		2004-04-30	1,2,3,4,5	1			1993-09-01		
3	-1259833	-1835434	-22.783333	30.9	22:47:00S	30:54:00E	36KTV8441378934	SF36-09	L	LCTY		SF	09				V				MHINGASLOKASIE	Mhingaslokasie	Mhingaslokasie	MHINGASLOKASIE	Mhingaslokasie	Mhingaslokasie		2004-05-11	1,2,3,4,5				1993-09-01		
3	-1259833	-1835432	-22.783333	30.9	22:47:00S	30:54:00E	36KTV8441378934	SF36-09	L	LCTY		SF	09				N				MHINGASLOCATION	Mhingas Location	Mhingas Location	MHINGASLOCATION	Mhingas Location	Mhingas Location		2004-05-11	1,2,3,4,5	1			1993-09-01		
3	-1259832	-1835433	-22.766667	30.966667	22:46:00S	30:58:00E	36KTV9123480876	SF36-09	L	LCTY		SF	09				V				MHINGASLOKASIE	Mhingaslokasie	Mhingaslokasie	MHINGASLOKASIE	Mhingaslokasie	Mhingaslokasie		2004-05-11	1,2,3,4,5				1993-09-01		
3	-1259832	-1835431	-22.766667	30.966667	22:46:00S	30:58:00E	36KTV9123480876	SF36-09	L	LCTY		SF	09				N				MHINGASLOCATION	Mhingas Location	Mhingas Location	MHINGASLOCATION	Mhingas Location	Mhingas Location		2004-05-11	1,2,3,4,5	1			1993-09-01		
3	-1250668	-1824419	-31.65	27.25	31:39:00S	27:15:00E	35JNE2370398331	SH35-15	L	LCTY		SF	05				N				LADYFRERECUMAKALA	Lady Frere-Cumakala	Lady Frere-Cumakala	LADYFRERECUMAKALA	Lady Frere-Cumakala	Lady Frere-Cumakala		2004-04-27	1,2,3,4,5	1			1993-09-01		
3	-1268653	-1846021	-30.516667	30.366667	30:31:00S	30:22:00E	36JTM4730421011	SH36-09	L	LCTY		SF	02				N				ODEKE	Odeke	Odeke	ODEKE	Odeke	Odeke		2004-04-27	1,2,3,4,5	1			1993-09-01		
3	-1268651	-1846019	-23.266667	30.916667	23:16:00S	30:55:00E	36KTV8688625429	SF36-13	L	LCTY		SF	09				N				ODAM	Odam	Odam	ODAM	Odam	Odam		2004-05-11	1,2,3,4,5	1			1993-09-01		
3	-1274651	-1853069	-24.766667	29.9	24:46:00S	29:54:00E	35JQN9327057777	SG35-04	L	LCTY		SF	09				D				RAMAKOKSLOKASIE	Ramakokslokasie	Ramakokslokasie	RAMAKOKSLOKASIE	Ramakokslokasie	Ramakokslokasie		2004-05-11	1,2,3,4,5	1			1993-09-01		
3	-1246505	-1819580	-30.7	20.866667	30:42:00S	20:52:00E	34JDM8723203637	SH34-10	L	LCTY		SF	08				N				KOEBOEKOLKLAAGTE	Koeboekolklaagte	Koeboekolklaagte	KOEBOEKOLKLAAGTE	Koeboekolklaagte	Koeboekolklaagte		2004-04-29	1,2,3,4,5	1			1993-09-01		
3	-1246491	-1819562	-29.833333	19.566667	29:50:00S	19:34:00E	34JCM6152198821	SH34-06	L	AREA		SF	08				D				KOEBASKOLK	Koebas Kolk	Koebas Kolk	KOEBASKOLK	Koebas Kolk	Koebas Kolk		2004-04-29	1,2,3,4,5	1			1993-09-01		
3	-1259009	-1834470	-33.866667	18.9	33:52:00S	18:54:00E	34HCH0575050643	SI34-05	L	RESF		SF	11				D				MEERLUSTFORESTRESERVE	Meerlust Forest Reserve	Meerlust Forest Reserve	MEERLUSTFORESTRESERVE	Meerlust Forest Reserve	Meerlust Forest Reserve		2004-04-23	1,2,3,4,5	1			1993-09-01		
3	-1254987	-1829526	-25.083333	30.5	25:05:00S	30:30:00E	36JTT4784523492	SG36-05	L	AREA		SF	07				N				LYDENBURGDORPSGRONDEN	Lydenburg Dorps Gronden	Lydenburg Dorps Gronden	LYDENBURGDORPSGRONDEN	Lydenburg Dorps Gronden	Lydenburg Dorps Gronden		2004-05-11	1,2,3,4,5	1			1993-09-01		
3	-1271539	-1849389	-29.85	19.333333	29:51:00S	19:20:00E	34JCM3900196670	SH34-05	L	AREA		SF	08				D				PAULSEVLEI	Paulsevlei	Paulsevlei	PAULSEVLEI	Paulsevlei	Paulsevlei		2004-04-29	1,2,3,4,5	1			1993-09-01		
3	-1258347	-1833661	-26	27.183333	26:00:00S	27:11:00E	35JNM1834824303	SG35-07	L	AREA		SF	10				D				MATUPASTADLOKASIE	Matupastad Lokasie	Matupastad Lokasie	MATUPASTADLOKASIE	Matupastad Lokasie	Matupastad Lokasie		2004-04-30	1,2,3,4,5	1			1993-09-01		
3	-1267576	-1844718	-31.666667	27.766667	31:40:00S	27:46:00E	35JNE7267896256	SH35-15	L	LCTY		SF	05				N				NQUMAKALA	Nqumakala	Nqumakala	NQUMAKALA	Nqumakala	Nqumakala		2004-04-27	1,2,3,4,5	1			1993-09-01		
3	-1270510	-1848197	-34.333333	19.666667	34:20:00S	19:40:00E	34HCH7734900079	SI34-10	L	AREA		SF	11				N				OVERBERG	Overberg	Overberg	OVERBERG	Overberg	Overberg		2004-04-23	1,2,3,4,5	1			1993-09-01		
3	-1253046	-1827196	-26.133333	27.75	26:08:00S	27:45:00E	35JNM7497509334	SG35-11	L	AREA		SF	06				D				LEWISHAMLOCATION	Lewisham Location	Lewisham Location	LEWISHAMLOCATION	Lewisham Location	Lewisham Location		2004-05-11	1,2,3,4,5	1			1993-09-01		
3	-1275803	-1854444	-33.366667	18.866667	33:22:00S	18:52:00E	34HCJ0152306030	SI34-05	L	RESF		SF	11				D				RIEBFORFORESTRESERVE	Riebfor Forest Reserve	Riebfor Forest Reserve	RIEBFORFORESTRESERVE	Riebfor Forest Reserve	Riebfor Forest Reserve		2004-04-23	1,2,3,4,5	1			1993-09-01		
3	-1283039	-1862779	-23.566667	28.033333	23:34:00S	28:02:00E	35KPP0545493368	SF35-15	L	AREA		SF	09				D				SHONGWANESLO	Shongwaneslo	Shongwaneslo	SHONGWANESLO	Shongwaneslo	Shongwaneslo		2004-05-11	1,2,3,4,5	1			1993-09-01		
3	-1267155	-1844193	-29.183333	24.4	29:11:00S	24:24:00E	35JKH4716268904	SH35-05	L	AREA		SF	08				D				NOOITGODACHT	Nooitgodacht	Nooitgodacht	NOOITGODACHT	Nooitgodacht	Nooitgodacht		2004-04-29	1,2,3,4,5	1			1993-09-01		
3	-1263330	-1839512	-32.083333	29.033333	32:05:00S	29:02:00E	35HPE9190348518	SI35-04	L	AREA		SF	05				D				MPAME	Mpame	Mpame	MPAME	Mpame	Mpame		2004-04-27	1,2,3,4,5	1			1993-09-01		
3	-1253867	-1828209	-28.266667	24.3	28:16:00S	24:18:00E	35JKJ3513170300	SH35-01	L	AREA		SF	08				D				LONONDER	Lononder	Lononder	LONONDER	Lononder	Lononder		2004-04-29	1,2,3,4,5	1			1993-09-01		
3	-1268003	-1845231	-30.866667	28.833333	30:52:00S	28:50:00E	35JPF7527883736	SH35-12	L	RESF		SF	05				V				NTSOVI	Ntsovi	Ntsovi	NTSOVI	Ntsovi	Ntsovi		2004-04-27	1,2,3,4,5				1993-09-01		
3	-1268003	-1845232	-30.866667	28.833333	30:52:00S	28:50:00E	35JPF7527883736	SH35-12	L	RESF		SF	05				D				NTSOVIFOREST	Ntsovi Forest	Ntsovi Forest	NTSOVIFOREST	Ntsovi Forest	Ntsovi Forest		2004-04-27	1,2,3,4,5	1			1993-09-01		
3	-1267636	-1844787	-30.6	30.166667	30:36:00S	30:10:00E	36JTM2833711306	SH36-09	L	LCTY		SF	02				N				NSIMBA	Nsimba	Nsimba	NSIMBA	Nsimba	Nsimba		2004-04-27	1,2,3,4,5	1			1993-09-01		
3	-1265982	-1842774	-33.216667	27.183333	33:13:00S	27:11:00E	35HND1708424678	SI35-07	L	LCTY		SF	05				N				NGWEKAZI	Ngwekazi	Ngwekazi	NGWEKAZI	Ngwekazi	Ngwekazi		2004-04-27	1,2,3,4,5	1			1993-09-01		
3	-1262950	-1819262	-33.466667	19.266667	33:28:00S	19:16:00E	34HCH3892795633	SI34-05	L	RESF		SF	11				V				KLUITJESKRAALFORESTRESERVE	Kluitjeskraal Forest Reserve	Kluitjeskraal Forest Reserve	KLUITJESKRAALFORESTRESERVE	Kluitjeskraal Forest Reserve	Kluitjeskraal Forest Reserve		2004-04-23	1,2,3,4,5				1993-09-01		
3	-1262950	-1839084	-33.466667	19.266667	33:28:00S	19:16:00E	34HCH3892795633	SI34-05	L	RESF		SF	11				N				MOSTERTSHOEKSTAATSBOS	Mostertshoek Staatsbos	Mostertshoek Staatsbos	MOSTERTSHOEKSTAATSBOS	Mostertshoek Staatsbos	Mostertshoek Staatsbos		2004-04-23	1,2,3,4,5	1			1993-09-01		
3	-1267352	-1844430	-32.033333	18.316667	32:02:00S	18:19:00E	34HBK4659652721	SI34-01	L	RES		SF	11				N				NORTIERRESERVAAT	Nortier Reservaat	Nortier Reservaat	NORTIERRESERVAAT	Nortier Reservaat	Nortier Reservaat		2004-04-23	1,2,3,4,5	1			1993-09-01		
3	-1267352	-1847694	-32.033333	18.316667	32:02:00S	18:19:00E	34HBK4659652721	SI34-01	L	RES		SF	11				V				OTTERDAM	Otterdam	Otterdam	OTTERDAM	Otterdam	Otterdam		2004-04-23	1,2,3,4,5				1993-09-01		
3	-1274214	-1852529	-33.033333	27.25	33:02:00S	27:15:00E	35HND2334544990	SI35-07	L	LCTY		SF	05				N				QAUKENI	Qaukeni	Qaukeni	QAUKENI	Qaukeni	Qaukeni		2004-04-27	1,2,3,4,5	1			1993-09-01		
3	-1265162	-1841770	-29.566667	30.95	29:34:00S	30:57:00E	36JUN0140727476	SH36-05	L	RES		SF	02				D				NDWEDWELOCATION	Ndwedwe Location	Ndwedwe Location	NDWEDWELOCATION	Ndwedwe Location	Ndwedwe Location		2004-04-27	1,2,3,4,5	1			1993-09-01		
3	-1263443	-1839648	-29.3	27.1	29:18:00S	27:06:00E	35JNH0971258772	SH35-07	L	LCTY		SF	03				N				MPHATSHWANYANE	Mphatshwanyane	Mphatshwanyane	MPHATSHWANYANE	Mphatshwanyane	Mphatshwanyane		2004-04-29	1,2,3,4,5	1			1993-09-01		
3	-1277726	-1856572	-31.283333	22.2	31:17:00S	22:12:00E	34JFL1422338376	SH34-15	L	AREA		SF	08				D				RONDOM	Rondom	Rondom	RONDOM	Rondom	Rondom		2004-04-29	1,2,3,4,5	1			1993-09-01		
3	-1261101	-1836914	-30.583333	28.833333	30:35:00S	28:50:00E	35JPG7579215142	SH35-12	L	LCTY		SF	05				N				MMAKONG	Mmakong	Mmakong	MMAKONG	Mmakong	Mmakong		2004-04-27	1,2,3,4,5	1			1993-09-01		
3	-1264699	-1841208	-29.25	18.166667	29:15:00S	18:10:00E	34JBN2464160988	SH34-05	L	LCTY		SF	08				D				NARISIES	Narisies	Narisies	NARISIES	Narisies	Narisies		2004-04-29	1,2,3,4,5	1			1993-09-01		
3	-1268494	-1845843	-32.516667	28.333333	32:31:00S	28:20:00E	35HPE2523401510	SI35-03	L	AREA		SF	05				D				NYUTURA	Nyutura	Nyutura	NYUTURA	Nyutura	Nyutura		2004-04-27	1,2,3,4,5	1			1993-09-01		
3	-1262982	-1839123	-27.066667	23.883333	27:04:00S	23:53:00E	34JGR8597302905	SG34-16	L	RES		SF	10				D				MOTITIONNATIVERESERVE	Motition Native Reserve	Motition Native Reserve	MOTITIONNATIVERESERVE	Motition Native Reserve	Motition Native Reserve		2004-04-30	1,2,3,4,5	1			1993-09-01		
3	-1287772	-1868294	-33.95	23.833333	33:57:00S	23:50:00E	34HGH6184639770	SI34-08	L	RESF		SF	05				V				STORMSRIVIERSTATEFOREST	Stormsrivier State Forest	Stormsrivier State Forest	STORMSRIVIERSTATEFOREST	Stormsrivier State Forest	Stormsrivier State Forest		2004-04-27	1,2,3,4,5				1993-09-01		
3	-1287772	-1868288	-33.95	23.833333	33:57:00S	23:50:00E	34HGH6184639770	SI34-08	L	RESF		SF	05				N				STORMSRIVIERBOSRESERVAAT	Stormsrivier-Bosreservaat	Stormsrivier-Bosreservaat	STORMSRIVIERBOSRESERVAAT	Stormsrivier-Bosreservaat	Stormsrivier-Bosreservaat		2004-04-27	1,2,3,4,5	1			1993-09-01		
3	-1274727	-1853171	-25.216667	29.583333	25:13:00S	29:35:00E	35JQN6028108560	SG35-08	L	AREA		SF	07				D				RAMOPUDUSLOKASIE	Ramopuduslokasie	Ramopuduslokasie	RAMOPUDUSLOKASIE	Ramopuduslokasie	Ramopuduslokasie		2004-05-11	1,2,3,4,5	1			1993-09-01		
3	-1238470	-1809682	-31.166667	22.316667	31:10:00S	22:19:00E	34JFL2548351181	SH34-15	L	AREA		SF	08				D				HOTTENTOTSFONTEIN	Hottentotsfontein	Hottentotsfontein	HOTTENTOTSFONTEIN	Hottentotsfontein	Hottentotsfontein		2004-11-23	1,2,3,4,5	1			1993-09-01		
3	-1257317	-1832387	-28	23.166667	28:00:00S	23:10:00E	34JGQ1306100906	SG34-16	L	RES		SF	08				V				MAREMANENATURELLERESERWE	Maremane Naturellereserwe	Maremane Naturellereserwe	MAREMANENATURELLERESERWE	Maremane Naturellereserwe	Maremane Naturellereserwe		2004-04-29	1,2,3,4,5				1993-09-01		
3	-1257317	-1832386	-28	23.166667	28:00:00S	23:10:00E	34JGQ1306100906	SG34-16	L	RES		SF	08				N				MAREMANENATIVERESERVE	Maremane Native Reserve	Maremane Native Reserve	MAREMANENATIVERESERVE	Maremane Native Reserve	Maremane Native Reserve		2004-04-29	1,2,3,4,5	1			1993-09-01		
3	-1257315	-1832384	-28.016667	23.166667	28:01:00S	23:10:00E	34JGP1302899059	SH34-04	L	LCTY		SF	08				N				MAREMANE	Maremane	Maremane	MAREMANE	Maremane	Maremane		2004-04-29	1,2,3,4,5	1			1993-09-01		
3	-1270916	-1848691	-23.5	28.183333	23:30:00S	28:11:00E	35KPQ2082400631	SF35-15	L	RESN		SF	09				D				PALALAPRIVATENATURERESERVE	Palala Private Nature Reserve	Palala Private Nature Reserve	PALALAPRIVATENATURERESERVE	Palala Private Nature Reserve	Palala Private Nature Reserve		2004-05-11	1,2,3,4,5	1			1993-09-01		
3	-1269169	-1846621	-32.15	21.016667	32:09:00S	21:01:00E	34HEK0157242938	SI34-03	L	LCTY		SF	08				N				ONDERRIETRIVIER	Onder-Rietrivier	Onder-Rietrivier	ONDERRIETRIVIER	Onder-Rietrivier	Onder-Rietrivier		2004-04-29	1,2,3,4,5	1			1993-09-01		
3	-1265208	-1841822	-32.983333	27.583333	32:59:00S	27:35:00E	35HND5450350410	SI35-03	L	RESF		SF	05				D				NEEDSCAMPFORESTRESERVE	Needs Camp Forest Reserve	Needs Camp Forest Reserve	NEEDSCAMPFORESTRESERVE	Needs Camp Forest Reserve	Needs Camp Forest Reserve		2004-04-27	1,2,3,4,5	1			1993-09-01		
3	-1268353	-1845672	-28.2	32.366667	28:12:00S	32:22:00E	36JVP3784480480	SH36-02	L	RESF		SF	02				N				NYALAZIPLANTATION	Nyalazi Plantation	Nyalazi Plantation	NYALAZIPLANTATION	Nyalazi Plantation	Nyalazi Plantation		2004-04-27	1,2,3,4,5	1			1993-09-01		
3	-1268341	-1845657	-33.05	27.416667	33:03:00S	27:25:00E	35HND3890143093	SI35-07	L	LCTY		SF	05				N				NXWASHU	Nxwashu	Nxwashu	NXWASHU	Nxwashu	Nxwashu		2004-04-27	1,2,3,4,5	1			1993-09-01		
3	-1249869	-1823536	-32.633333	26.95	32:38:00S	26:57:00E	35HMD9531089359	SI35-02	L	AREA		SF	05				D				KWAKAYALETU	Kwa-Kayaletu	Kwa-Kayaletu	KWAKAYALETU	Kwa-Kayaletu	Kwa-Kayaletu		2004-04-27	1,2,3,4,5	1			1993-09-01		
3	-1269361	-1846854	-23.916667	28.183333	23:55:00S	28:11:00E	35KPP2044154495	SF35-15	L	RESN		SF	09				D				ONSTOEKOMSPRIVATENATURERESERVE	Ons Toekoms Private Nature Reserve	Ons Toekoms Private Nature Reserve	ONSTOEKOMSPRIVATENATURERESERVE	Ons Toekoms Private Nature Reserve	Ons Toekoms Private Nature Reserve		2004-05-11	1,2,3,4,5	1			1993-09-01		
3	-1256107	-1830862	-28.616667	28.816667	28:37:00S	28:49:00E	35JPJ7760833134	SH35-04	L	LCTY		SF	03				N				MAKENENG	Makeneng	Makeneng	MAKENENG	Makeneng	Makeneng		2004-04-30	1,2,3,4,5	1			1993-09-01		
3	-1261825	-1837789	-26.016667	25.5	26:01:00S	25:30:00E	35JLM4989421608	SG35-10	L	RES		SF	10				D				MOLOPONATURELLERESERWE	Molopo Naturellereserwe	Molopo Naturellereserwe	MOLOPONATURELLERESERWE	Molopo Naturellereserwe	Molopo Naturellereserwe		2004-04-30	1,2,3,4,5	1			1993-09-01		
3	-1266540	-1843472	-32.35	28.6	32:21:00S	28:36:00E	35HPE5056019643	SI35-04	L	AREA		SF	05				D				NKONKWANA	Nkonkwana	Nkonkwana	NKONKWANA	Nkonkwana	Nkonkwana		2004-04-27	1,2,3,4,5	1			1993-09-01		
3	-1273465	-1851653	-30.716667	30.283333	30:43:00S	30:17:00E	36JTL3984098646	SH36-09	L	RESF		SF	02				D				PORTSHEPSTONEFORESTRESERVE	Port Shepstone Forest Reserve	Port Shepstone Forest Reserve	PORTSHEPSTONEFORESTRESERVE	Port Shepstone Forest Reserve	Port Shepstone Forest Reserve		2004-04-27	1,2,3,4,5	1			1993-09-01		
3	-1273465	-1851652	-30.716667	30.283333	30:43:00S	30:17:00E	36JTL3984098646	SH36-09	L	RESF		SF	02				V				PORTSHEPSTONE	Port Shepstone	Port Shepstone	PORTSHEPSTONE	Port Shepstone	Port Shepstone		2004-04-27	1,2,3,4,5				1993-09-01		
3	-1277821	-1856683	-30.783333	17.65	30:47:00S	17:39:00E	33JYF5359991407	SH33-12	L	AREA		SF	08				D				ROODEHEWWEL	Roodehewwel	Roodehewwel	ROODEHEWWEL	Roodehewwel	Roodehewwel		2004-04-29	1,2,3,4,5	1			1993-09-01		
3	-1240972	-1812997	-34	23.25	34:00:00S	23:15:00E	34HGH0780335562	SI34-08	L	RESF		SF	11				N				KAFFERSKOPBOSRESERVAAT	Kafferskop Bosreservaat	Kafferskop Bosreservaat	KAFFERSKOPBOSRESERVAAT	Kafferskop Bosreservaat	Kafferskop Bosreservaat		2004-04-23	1,2,3,4,5	1			1993-09-01		
3	-1240810	-1812786	-29.6	19.733333	29:36:00S	19:44:00E	34JCN7734124867	SH34-06	L	LCTY		SF	08				N				KABEEP	Kabeep	Kabeep	KABEEP	Kabeep	Kabeep		2004-04-29	1,2,3,4,5	1			1993-09-01		
3	-1240797	-1812772	-32.416667	28.466667	32:25:00S	28:28:00E	35HPE3791112432	SI35-03	L	AREA		SF	05				D				KABAKAZI	Kabakazi	Kabakazi	KABAKAZI	Kabakazi	Kabakazi		2004-04-27	1,2,3,4,5	1			1993-09-01		
3	-1256988	-1831982	-27.45	23.683333	27:27:00S	23:41:00E	34JGQ6521660857	SG34-16	L	RES		SF	10				D				MANYEDINGNATIVERESERVE	Manyeding Native Reserve	Manyeding Native Reserve	MANYEDINGNATIVERESERVE	Manyeding Native Reserve	Manyeding Native Reserve		2004-04-30	1,2,3,4,5	1			1993-09-01		
3	-1269658	-1847202	-28.75	29.066667	28:45:00S	29:04:00E	35JQJ0179917961	SH35-04	L	LCTY		SF	02				N				OPHONDWENI	Ophondweni	Ophondweni	OPHONDWENI	Ophondweni	Ophondweni		2004-04-27	1,2,3,4,5	1			1993-09-01		
3	-1269214	-1846675	-31.566667	19.266667	31:34:00S	19:16:00E	34JCL3550106292	SH34-13	L	LCTY		SF	08				N				ONDERVAALKRANS	Onder-Vaalkrans	Onder-Vaalkrans	ONDERVAALKRANS	Onder-Vaalkrans	Onder-Vaalkrans		2004-04-29	1,2,3,4,5	1			1993-09-01		
3	-1274111	-1852401	-29.3	19.683333	29:18:00S	19:41:00E	34JCN7212358057	SH34-06	L	AREA		SF	08				D				PUTSBERG	Putsberg	Putsberg	PUTSBERG	Putsberg	Putsberg		2004-04-29	1,2,3,4,5	1			1993-09-01		
3	-1271968	-1849887	-32.1	22.783333	32:06:00S	22:47:00E	34HFK6827447088	SI34-04	L	LCTY		SF	11				N				PERDEPLAAT	Perde Plaat	Perde Plaat	PERDEPLAAT	Perde Plaat	Perde Plaat		2004-04-23	1,2,3,4,5	1			1993-09-01		
3	-1267896	-1845103	-32.066667	28.833333	32:04:00S	28:50:00E	35HPE7305650705	SI35-04	L	RESF		SF	05				N				NTLONYANE	Ntlonyane	Ntlonyane	NTLONYANE	Ntlonyane	Ntlonyane		2004-04-27	1,2,3,4,5	1			1993-09-01		
3	-1284403	-1864395	-33.633333	19.2	33:38:00S	19:12:00E	34HCH3305277045	SI34-05	L	LCTY		SF	11				N				SLANGHOEK	Slanghoek	Slanghoek	SLANGHOEK	Slanghoek	Slanghoek		2004-04-23	1,2,3,4,5	1			1993-09-01		
3	-1260588	-1836295	-28.2	27.716667	28:12:00S	27:43:00E	35JNJ7033580434	SH35-03	L	AREA		SF	03				D				MIGNONETTE	Mignonette	Mignonette	MIGNONETTE	Mignonette	Mignonette		2004-04-29	1,2,3,4,5	1			1993-09-01		
3	-1257708	-1832854	-29.583333	30.466667	29:35:00S	30:28:00E	36JTN5461024704	SH36-05	L	RES		SF	02				D				MARYVALELOCATION	Maryvale Location	Maryvale Location	MARYVALELOCATION	Maryvale Location	Maryvale Location		2004-04-27	1,2,3,4,5	1			1993-09-01		
3	-1263887	-1840192	-33.016667	27.4	33:01:00S	27:24:00E	35HND3735946794	SI35-07	L	LCTY		SF	05				N				MTWAKU	Mtwaku	Mtwaku	MTWAKU	Mtwaku	Mtwaku		2004-04-27	1,2,3,4,5	1			1993-09-01		
3	-1265918	-1842680	-30.1	28.983333	30:06:00S	28:59:00E	35JPG9111568474	SH35-12	L	LCTY		SF	05				N				NGULUZANI	Nguluzani	Nguluzani	NGULUZANI	Nguluzani	Nguluzani		2004-04-27	1,2,3,4,5	1			1993-09-01		
3	-1272641	-1850693	-28.733333	23.966667	28:44:00S	23:58:00E	34JGP8976217950	SH34-04	L	LCTY		SF	08				N				PLAATDRIFTLOCATION	Plaatdrift Location	Plaatdrift Location	PLAATDRIFTLOCATION	Plaatdrift Location	Plaatdrift Location		2004-04-29	1,2,3,4,5	1			1993-09-01		
3	-1272641	-1850691	-28.733333	23.966667	28:44:00S	23:58:00E	34JGP8976217950	SH34-04	L	LCTY		SF	08				V				PLAATDRIFLOKASIE	Plaatdriflokasie	Plaatdriflokasie	PLAATDRIFLOKASIE	Plaatdriflokasie	Plaatdriflokasie		2004-04-29	1,2,3,4,5				1993-09-01		
3	-1265779	-1842502	-32.366667	28.5	32:22:00S	28:30:00E	35HPE4112317932	SI35-04	L	AREA		SF	05				D				NGOMA	Ngoma	Ngoma	NGOMA	Ngoma	Ngoma		2004-04-27	1,2,3,4,5	1			1993-09-01		
3	-1256160	-1830927	-30.616667	28.316667	30:37:00S	28:19:00E	35JPG2620212141	SH35-11	L	LCTY		SF	05				N				MAKHOTHANA	Makhothana	Makhothana	MAKHOTHANA	Makhothana	Makhothana		2004-04-27	1,2,3,4,5	1			1993-09-01		
3	-1272394	-1850391	-29.566667	30.35	29:34:00S	30:21:00E	36JTN4326326299	SH36-05	L	AREA		SF	02				N				PIETERMARITZBURGTOWNLANDS	Pietermaritzburg Townlands	Pietermaritzburg Townlands	PIETERMARITZBURGTOWNLANDS	Pietermaritzburg Townlands	Pietermaritzburg Townlands		2004-04-27	1,2,3,4,5	1			1993-09-01		
3	-1270807	-1848550	-34.316667	19.25	34:19:00S	19:15:00E	34HCH3898401345	SI34-09	L	RESF		SF	11				N				PAARDEPOORTSTAATSBOS	Paardepoort Staatsbos	Paardepoort Staatsbos	PAARDEPOORTSTAATSBOS	Paardepoort Staatsbos	Paardepoort Staatsbos		2004-04-23	1,2,3,4,5	1			1993-09-01		
3	-1248885	-1822439	-29.916667	18.55	29:55:00S	18:33:00E	34JBM6347087925	SH34-05	L	LCTY		SF	08				N				KRUISPAD	Kruispad	Kruispad	KRUISPAD	Kruispad	Kruispad		2004-04-29	1,2,3,4,5	1			1993-09-01		
3	-1255189	-1829764	-30.533333	30.283333	30:32:00S	30:17:00E	36JTM3934918974	SH36-09	L	LCTY		SF	02				N				MABHELENI	Mabheleni	Mabheleni	MABHELENI	Mabheleni	Mabheleni		2004-04-27	1,2,3,4,5	1			1993-09-01		
3	-1237904	-1809014	-29.016667	22.35	29:01:00S	22:21:00E	34JFN3147589416	SH34-07	L	LCTY		SF	08				N				HOLPANLEEGTE	Holpanleegte	Holpanleegte	HOLPANLEEGTE	Holpanleegte	Holpanleegte		2004-11-03	1,2,3,4,5	1			1993-09-01		
3	-1245761	-1818723	-28.816667	25.45	28:49:00S	25:27:00E	35JLJ4875511340	SH35-01	L	AREA		SF	03				D				KLIPPAN	Klippan	Klippan	KLIPPAN	Klippan	Klippan		2004-04-30	1,2,3,4,5	1			1993-09-01		
3	-1254343	-1828744	-30.983333	22.333333	30:59:00S	22:20:00E	34JFL2731671483	SH34-11	L	LCTY		SF	08				N				LOUWSPLAAS	Louwsplaas	Louwsplaas	LOUWSPLAAS	Louwsplaas	Louwsplaas		2004-04-29	1,2,3,4,5	1			1993-09-01		
3	-1258364	-1833680	-25.033333	28.816667	25:02:00S	28:49:00E	35JPN8329030131	SG35-08	L	AREA		SF	07				D				MAUBANESLOKASIE	Maubaneslokasie	Maubaneslokasie	MAUBANESLOKASIE	Maubaneslokasie	Maubaneslokasie		2004-05-11	1,2,3,4,5	1			1993-09-01		
3	-1257904	-1833112	-25.766667	20.033333	25:46:00S	20:02:00E	34JDS0306549800	SG34-06	L	LCTY		SF	08				N				MATAMATASOUTHAFRICAMOUNTEDRIFLESRESERVE	Mata Mata South Africa Mounted Rifles Reserve	Mata Mata South Africa Mounted Rifles Reserve	MATAMATASOUTHAFRICAMOUNTEDRIFLESRESERVE	Mata Mata South Africa Mounted Rifles Reserve	Mata Mata South Africa Mounted Rifles Reserve		2004-04-29	1,2,3,4,5	1			1993-09-01		
3	-1272195	-1850149	-26.816667	20.05	26:49:00S	20:03:00E	34JDR0559133517	SG34-10	L	LCTY		SF	08				N				PHILANDERSBRONCOLOUREDSETTLEMENT	Philandersbron Coloured Settlement	Philandersbron Coloured Settlement	PHILANDERSBRONCOLOUREDSETTLEMENT	Philandersbron Coloured Settlement	Philandersbron Coloured Settlement		2004-04-29	1,2,3,4,5	1			1993-09-01		
3	-1261800	-1837756	-23.783333	29.216667	23:47:00S	29:13:00E	35KQP2587467999	SF35-16	L	LCTY		SF	09				N				MOLETSI	Moletsi	Moletsi	MOLETSI	Moletsi	Moletsi		2004-05-11	1,2,3,4,5	1			1993-09-01		
3	-1256008	-1830741	-27.75	24.65	27:45:00S	24:39:00E	35JKK6837428278	SG35-13	L	AREA		SF	10				D				MAJEAKGOROLOKASIE	Majeakgorolokasie	Majeakgorolokasie	MAJEAKGOROLOKASIE	Majeakgorolokasie	Majeakgorolokasie		2004-04-30	1,2,3,4,5	1			1993-09-01		
3	-1244829	-1817665	-26.883333	24.216667	26:53:00S	24:13:00E	35JKL2350223448	SG35-09	L	RES		SF	10				D				KLEINTSWAINGNATURELLERESERWE	Klein-Tswaingnaturellereserwe	Klein-Tswaingnaturellereserwe	KLEINTSWAINGNATURELLERESERWE	Klein-Tswaingnaturellereserwe	Klein-Tswaingnaturellereserwe		2004-04-30	1,2,3,4,5	1			1993-09-01		
3	-1244827	-1817663	-26.866667	24.233333	26:52:00S	24:14:00E	35JKL2511825332	SG35-09	L	LCTY		SF	10				N				KLEINTSWAING	Klein-Tswaing	Klein-Tswaing	KLEINTSWAING	Klein-Tswaing	Klein-Tswaing		2004-04-30	1,2,3,4,5	1			1993-09-01		
3	-1252502	-1826578	-30.75	28.533333	30:45:00S	28:32:00E	35JPF4677097100	SH35-12	L	RES		SF	05				D				LEHANASLOCATION	Lehanas Location	Lehanas Location	LEHANASLOCATION	Lehanas Location	Lehanas Location		2004-04-27	1,2,3,4,5	1			1993-09-01		
3	-1241915	-1814099	-32.516667	28.316667	32:31:00S	28:19:00E	35HPE2366801529	SI35-03	L	LCTY		SF	05				N				KAMKAME	Kamkame	Kamkame	KAMKAME	Kamkame	Kamkame		2004-04-27	1,2,3,4,5	1			1993-09-01		
3	-1249598	-1823244	-30.516667	30.566667	30:31:00S	30:34:00E	36JTM6650221443	SH36-09	L	LCTY		SF	02				N				KWABANGIBIZO	KwaBangibizo	KwaBangibizo	KWABANGIBIZO	KwaBangibizo	KwaBangibizo		2004-04-27	1,2,3,4,5	1			1993-09-01		
3	-1266301	-1843164	-30.85	24.066667	30:51:00S	24:04:00E	35JKF1947083337	SH35-09	L	AREA		SF	08				D				NIEUWJAARSFONTEIN	Nieuwjaarsfontein	Nieuwjaarsfontein	NIEUWJAARSFONTEIN	Nieuwjaarsfontein	Nieuwjaarsfontein		2004-04-29	1,2,3,4,5	1			1993-09-01		
3	-1271219	-1849031	-28.616667	23.766667	28:37:00S	23:46:00E	34JGP7051931353	SH34-04	L	LCTY		SF	08				N				PANNEVELD	Panneveld	Panneveld	PANNEVELD	Panneveld	Panneveld		2004-04-29	1,2,3,4,5	1			1993-09-01		
3	-1271217	-1849029	-28.466667	23.883333	28:28:00S	23:53:00E	34JGP8233147713	SH34-04	L	LCTY		SF	08				N				PANNEVELD	Panneveld	Panneveld	PANNEVELD	Panneveld	Panneveld		2004-04-29	1,2,3,4,5	1			1993-09-01		
3	-1239620	-1811374	-25.016667	20.033333	25:01:00S	20:02:00E	34JDT0246432859	SG34-06	L	LCTY		SF	08				N				JACKSONDRAAI	Jackson Draai	Jackson Draai	JACKSONDRAAI	Jackson Draai	Jackson Draai		2004-04-29	1,2,3,4,5	1			1993-09-01		
3	-1241312	-1813420	-29.983333	19.616667	29:59:00S	19:37:00E	34JCM6655282256	SH34-06	L	LCTY		SF	08				N				KALKDAM	Kalkdam	Kalkdam	KALKDAM	Kalkdam	Kalkdam		2004-04-29	1,2,3,4,5	1			1993-09-01		
3	-1255182	-1829753	-25.166667	26.85	25:10:00S	26:51:00E	35JMN8488416589	SG35-06	L	AREA		SF	10				D				MABESLOKASIE	Mabeslokasie	Mabeslokasie	MABESLOKASIE	Mabeslokasie	Mabeslokasie		2004-04-30	1,2,3,4,5	1			1993-09-01		
3	-1261910	-1837890	-30.316667	17.966667	30:19:00S	17:58:00E	33JYG8527842394	SH33-12	L	LCTY		SF	08				N				MONDSTROOP	Mondstroop	Mondstroop	MONDSTROOP	Mondstroop	Mondstroop		2004-04-29	1,2,3,4,5	1			1993-09-01		
3	-1261137	-1836952	-23.5	29.766667	23:30:00S	29:46:00E	35KQP8255398407	SF35-16	L	AREA		SF	09				D				MMATSEKE	Mmatseke	Mmatseke	MMATSEKE	Mmatseke	Mmatseke		2004-05-11	1,2,3,4,5	1			1993-09-01		
3	-1271206	-1849015	-25.733333	29.666667	25:44:00S	29:40:00E	35JQM6753451143	SG35-08	L	RESF		SF	07				D				PANFORESTRESERVE	Pan Forest Reserve	Pan Forest Reserve	PANFORESTRESERVE	Pan Forest Reserve	Pan Forest Reserve		2004-05-11	1,2,3,4,5	1			1993-09-01		
3	-1247531	-1820824	-27.216667	27.583333	27:13:00S	27:35:00E	35JNK5776589432	SG35-15	L	AREA		SF	03				D				KOPPIESLOCATION	Koppies Location	Koppies Location	KOPPIESLOCATION	Koppies Location	Koppies Location		2004-04-30	1,2,3,4,5	1			1993-09-01		
3	-1262294	-1838316	-28.35	24.066667	28:21:00S	24:04:00E	35JKJ1245560528	SH35-01	L	AREA		SF	08				D				MOOIPLAATS	Mooiplaats	Mooiplaats	MOOIPLAATS	Mooiplaats	Mooiplaats		2004-04-29	1,2,3,4,5	1			1993-09-01		
3	-1236891	-1807801	-30.9	21	30:54:00S	21:00:00E	34JEL0000081480	SH34-11	L	LCTY		SF	08				N				HEUNINGBERG	Heuningberg	Heuningberg	HEUNINGBERG	Heuningberg	Heuningberg		2004-11-03	1,2,3,4,5	1			1993-09-01		
3	-1255432	-1830052	-26.233333	24.183333	26:14:00S	24:11:00E	35JKL1860495417	SG35-09	L	RESN		SF	10				D				MADIAKGAMANATURELLERESERWE	Madiakgamanaturellereserwe	Madiakgamanaturellereserwe	MADIAKGAMANATURELLERESERWE	Madiakgamanaturellereserwe	Madiakgamanaturellereserwe		2004-04-30	1,2,3,4,5	1			1993-09-01		
3	-1252541	-1826630	-26.45	22.75	26:27:00S	22:45:00E	34JFR7448073293	SG34-12	L	AREA		SF	10				D				LEINSTER	Leinster	Leinster	LEINSTER	Leinster	Leinster		2004-11-04	1,2,3,4,5	1			1993-09-01		
3	-1241160	-1813237	-29.75	21.5	29:45:00S	21:30:00E	34JEN4834508811	SH34-07	L	RGN		SF	08				V				KAIINGBULTE	Kaiingbulte	Kaiingbulte	KAIINGBULTE	Kaiingbulte	Kaiingbulte		2004-04-29	1,2,3,4,5				1993-09-01		
3	-1241160	-1813241	-29.75	21.5	29:45:00S	21:30:00E	34JEN4834508811	SH34-07	L	RGN		SF	08				N				KAIINGVELD	Kaiingveld	Kaiingveld	KAIINGVELD	Kaiingveld	Kaiingveld		2004-04-29	1,2,3,4,5	1			1993-09-01		
3	-1247196	-1820426	-25.05	20.25	25:03:00S	20:15:00E	34JDT2434729306	SG34-06	L	LCTY		SF	08				N				KOODOOBUSH	Koodoo Bush	Koodoo Bush	KOODOOBUSH	Koodoo Bush	Koodoo Bush		2004-04-29	1,2,3,4,5	1			1993-09-01		
3	-1253590	-1827880	-33.8	25.15	33:48:00S	25:09:00E	35HLC2874658481	SI35-05	L	RESF		SF	05				N				LOERIEBOSRESERVAAT	Loerie Bosreservaat	Loerie Bosreservaat	LOERIEBOSRESERVAAT	Loerie Bosreservaat	Loerie Bosreservaat		2004-04-27	1,2,3,4,5	1			1993-09-01		
3	-1257101	-1832124	-28.7	29.066667	28:42:00S	29:04:00E	35JQJ0189523502	SH35-04	L	LCTY		SF	02				N				MAPHOPHOMANA	Maphophomana	Maphophomana	MAPHOPHOMANA	Maphophomana	Maphophomana		2004-04-27	1,2,3,4,5	1			1993-09-01		
3	-1257084	-1832102	-24.016667	28.866667	24:01:00S	28:52:00E	35JPP8985942669	SG35-04	L	AREA		SF	09				D				MAPELASNATIVEAREA	Mapela’s Native Area	Mapela's Native Area	MAPELASNATIVEAREA	Mapela’s Native Area	Mapela's Native Area		2004-05-11	1,2,3,4,5	1			1993-09-01		
3	-1250425	-1824137	-32.2	26.816667	32:12:00S	26:49:00E	35HME8272137381	SI35-02	L	AREA		SF	05				D				KWASULINYEMBEZI	Kwa-Sulinyembezi	Kwa-Sulinyembezi	KWASULINYEMBEZI	Kwa-Sulinyembezi	Kwa-Sulinyembezi		2004-04-27	1,2,3,4,5	1			1993-09-01		
3	-1231443	-1801499	-32.4	28.383333	32:24:00S	28:23:00E	35HPE3009814384	SI35-03	L	AREA		SF	05				D				GODIDI	Godidi	Godidi	GODIDI	Godidi	Godidi		2004-04-27	1,2,3,4,5	1			1993-09-01		
3	-1243428	-1815982	-29.166667	17.516667	29:10:00S	17:31:00E	33JYH4477170928	SH33-08	L	LCTY		SF	08				N				KHAKHARUB	Khakharub	Khakharub	KHAKHARUB	Khakharub	Khakharub		2004-04-29	1,2,3,4,5	1			1993-09-01		
3	-1253100	-1827256	-26.2	26.166667	26:12:00S	26:10:00E	35JMM1674201900	SG35-10	L	RESF		SF	10				D				LICHTENBURGFORESTRESERVE	Lichtenburg Forest Reserve	Lichtenburg Forest Reserve	LICHTENBURGFORESTRESERVE	Lichtenburg Forest Reserve	Lichtenburg Forest Reserve		2004-04-30	1,2,3,4,5	1			1993-09-01		
3	-1228926	-1798690	-34.3	21.1	34:18:00S	21:06:00E	34HEH0920204575	SI34-11	L	AREA		SF	11				D				FRANZEKRAAL	Franzekraal	Franzekraal	FRANZEKRAAL	Franzekraal	Franzekraal		2004-04-23	1,2,3,4,5	1			1993-09-01		
3	-1237649	-1808724	-32.55	21.566667	32:33:00S	21:34:00E	34HEJ5320398457	SI34-03	L	LCTY		SF	11				N				HOEVELD	Hoëveld	Hoeveld	HOEVELD	Hoëveld	Hoeveld		2004-04-23	1,2,3,4,5	1			1993-09-01		
3	-1252983	-1827125	-24.833333	29.283333	24:50:00S	29:17:00E	35JQN3076051575	SG35-04	L	RESN		SF	07				D				LETOLOPRIVAATNATUURRESERWE	Letoloprivaat Natuurreserwe	Letoloprivaat Natuurreserwe	LETOLOPRIVAATNATUURRESERWE	Letoloprivaat Natuurreserwe	Letoloprivaat Natuurreserwe		2004-05-11	1,2,3,4,5	1			1993-09-01		
3	-1258669	-1834053	-30.866667	29.766667	30:52:00S	29:46:00E	35JQF6453981896	SH35-12	L	RESF		SF	05				N				MBIZANAFOREST	Mbizana Forest	Mbizana Forest	MBIZANAFOREST	Mbizana Forest	Mbizana Forest		2004-04-27	1,2,3,4,5	1			1993-09-01		
3	-1258669	-1778052	-30.866667	29.766667	30:52:00S	29:46:00E	35JQF6453981896	SH35-12	L	RESF		SF	05				V				BIZANAFOREST	Bizana Forest	Bizana Forest	BIZANAFOREST	Bizana Forest	Bizana Forest		2004-04-27	1,2,3,4,5				1993-09-01		
3	-1258669	-1778050	-30.866667	29.766667	30:52:00S	29:46:00E	35JQF6453981896	SH35-12	L	RESF		SF	05				V				BIZANA	Bizana	Bizana	BIZANA	Bizana	Bizana		2004-04-27	1,2,3,4,5				1993-09-01		
3	-1243482	-1816046	-29.05	17.833333	29:03:00S	17:50:00E	33JYH7589383161	SH33-08	L	LCTY		SF	08				N				KHOROMUS	Khoromus	Khoromus	KHOROMUS	Khoromus	Khoromus		2004-04-29	1,2,3,4,5	1			1993-09-01		
3	-1256534	-1831415	-23.3	30.1	23:18:00S	30:06:00E	36KTV0337720299	SF36-13	L	LCTY		SF	09				N				MAMAILASLOKASIE	Mamailaslokasie	Mamailaslokasie	MAMAILASLOKASIE	Mamailaslokasie	Mamailaslokasie		2004-05-11	1,2,3,4,5	1			1993-09-01		
3	-1256534	-1831414	-23.3	30.1	23:18:00S	30:06:00E	36KTV0337720299	SF36-13	L	LCTY		SF	09				V				MAMAILALOKASIE	Mamailalokasie	Mamailalokasie	MAMAILALOKASIE	Mamailalokasie	Mamailalokasie		2004-05-11	1,2,3,4,5				1993-09-01		
3	-1249839	-1823504	-29.033333	29.383333	29:02:00S	29:23:00E	35JQH3209885978	SH35-08	L	LCTY		SF	02				N				KWAHLATHIKHULA	KwaHlathikhula	KwaHlathikhula	KWAHLATHIKHULA	KwaHlathikhula	KwaHlathikhula		2004-04-27	1,2,3,4,5	1			1993-09-01		
3	-1261156	-1836976	-30.5	30.616667	30:30:00S	30:37:00E	36JTM7126223393	SH36-09	L	LCTY		SF	02				V				MNANFU	Mnanfu	Mnanfu	MNANFU	Mnanfu	Mnanfu		2004-04-27	1,2,3,4,5				1993-09-01		
3	-1261156	-1836972	-30.5	30.616667	30:30:00S	30:37:00E	36JTM7126223393	SH36-09	L	LCTY		SF	02				N				MNAMFU	Mnamfu	Mnamfu	MNAMFU	Mnamfu	Mnamfu		2004-04-27	1,2,3,4,5	1			1993-09-01		
3	-1256920	-1831903	-26.066667	27.766667	26:04:00S	27:46:00E	35JNM7668416708	SG35-11	L	AREA		SF	06				D				MANSIEVILLELOCATION	Mansieville Location	Mansieville Location	MANSIEVILLELOCATION	Mansieville Location	Mansieville Location		2004-05-11	1,2,3,4,5	1			1993-09-01		
3	-1254441	-1828861	-32.016667	29.066667	32:01:00S	29:04:00E	35HPE9519155850	SI35-04	L	LCTY		SF	05				N				LOWERNENGA	Lower Nenga	Lower Nenga	LOWERNENGA	Lower Nenga	Lower Nenga		2004-04-27	1,2,3,4,5	1			1993-09-01		
3	-1254424	-1828841	-27.15	23.25	27:09:00S	23:15:00E	34JGQ2297194952	SG34-16	L	RES		SF	10				D				LOWERKURUMANNATIVERESERVE	Lower Kuruman Native Reserve	Lower Kuruman Native Reserve	LOWERKURUMANNATIVERESERVE	Lower Kuruman Native Reserve	Lower Kuruman Native Reserve		2004-04-30	1,2,3,4,5	1			1993-09-01		
3	-1254417	-1828829	-32.783333	26.95	32:47:00S	26:57:00E	35HMD9531872731	SI35-02	L	LCTY		SF	05				N				LOWERHEGU	Lower Hegu	Lower Hegu	LOWERHEGU	Lower Hegu	Lower Hegu		2004-04-27	1,2,3,4,5	1			1993-09-01		
3	-1259328	-1834842	-33.016667	27.233333	33:01:00S	27:14:00E	35HND2179346841	SI35-07	L	LCTY		SF	05				N				MENZIWA	Menziwa	Menziwa	MENZIWA	Menziwa	Menziwa		2004-04-27	1,2,3,4,5	1			1993-09-01		
3	-1228090	-1797729	-28.116667	32.4	28:07:00S	32:24:00E	36JVP4107089728	SH36-02	L	RESF		SF	02				V				FANIESPLANTASIE	Fanie’s Plantasie	Fanie's Plantasie	FANIESPLANTASIE	Fanie’s Plantasie	Fanie's Plantasie		2004-04-27	1,2,3,4,5				1993-09-01		
3	-1228090	-1797730	-28.116667	32.4	28:07:00S	32:24:00E	36JVP4107089728	SH36-02	L	RESF		SF	02				N				FANIESPLANTATION	Fanie’s Plantation	Fanie's Plantation	FANIESPLANTATION	Fanie’s Plantation	Fanie's Plantation		2004-04-27	1,2,3,4,5	1			1993-09-01		
3	-1255716	-1830393	-30.6	30.483333	30:36:00S	30:29:00E	36JTM5870912028	SH36-09	L	LCTY		SF	02				N				MAGOG	Magog	Magog	MAGOG	Magog	Magog		2004-04-27	1,2,3,4,5	1			1993-09-01		
3	-1260993	-1836772	-30.15	30.416667	30:09:00S	30:25:00E	36JTM5117761775	SH36-09	L	LCTY		SF	02				N				MKUNYA	Mkunya	Mkunya	MKUNYA	Mkunya	Mkunya		2004-04-27	1,2,3,4,5	1			1993-09-01		
3	-1253849	-1828190	-25.083333	30.55	25:05:00S	30:33:00E	36JTT5289023584	SG36-05	L	RESN		SF	07				D				LONGTOMPASPRIVATENATURERESERVE	Long Tom Pas-Private Nature Reserve	Long Tom Pas-Private Nature Reserve	LONGTOMPASPRIVATENATURERESERVE	Long Tom Pas-Private Nature Reserve	Long Tom Pas-Private Nature Reserve		2004-05-11	1,2,3,4,5	1			1993-09-01		
3	-1259511	-1835047	-27.683333	24.1	27:41:00S	24:06:00E	35JKK1396634511	SG35-13	L	RES		SF	10				D				METSEMATSHWENATURELLERESERVE	Metsematshwe Naturellereserve	Metsematshwe Naturellereserve	METSEMATSHWENATURELLERESERVE	Metsematshwe Naturellereserve	Metsematshwe Naturellereserve		2004-04-30	1,2,3,4,5	1			1993-09-01		
3	-1240197	-1812070	-33.95	23.35	33:57:00S	23:21:00E	34HGH1716840900	SI34-08	L	AREA		SF	11				D				JESSISBLAARVLEI	Jessisblaar Vlei	Jessisblaar Vlei	JESSISBLAARVLEI	Jessisblaar Vlei	Jessisblaar Vlei		2004-04-23	1,2,3,4,5	1			1993-09-01		
3	-1248067	-1821491	-28.416667	24.2	28:25:00S	24:12:00E	35JKJ2570353449	SH35-01	L	AREA		SF	08				D				KRANSFONTEIN	Kransfontein	Kransfontein	KRANSFONTEIN	Kransfontein	Kransfontein		2004-04-29	1,2,3,4,5	1			1993-09-01		
3	-1258736	-1834136	-27.983333	32.55	27:59:00S	32:33:00E	36JVQ5574804562	SG36-14	L	LCTY		SF	02				N				MBOTSHENI	Mbotsheni	Mbotsheni	MBOTSHENI	Mbotsheni	Mbotsheni		2004-04-27	1,2,3,4,5	1			1993-09-01		
3	-1250528	-1824256	-32.783333	27.316667	32:47:00S	27:19:00E	35HND2965472688	SI35-03	L	LCTY		SF	05				N				KWELERANA	Kwelerana	Kwelerana	KWELERANA	Kwelerana	Kwelerana		2004-04-27	1,2,3,4,5	1			1993-09-01		
3	-1249883	-1823552	-30.15	30.483333	30:09:00S	30:29:00E	36JTM5760061918	SH36-09	L	LCTY		SF	02				N				KWALEMBE	KwaLembe	KwaLembe	KWALEMBE	KwaLembe	KwaLembe		2004-04-27	1,2,3,4,5	1			1993-09-01		
3	-1227947	-1797572	-24.533333	27.166667	24:32:00S	27:10:00E	35JNN1688186714	SG35-03	L	RESN		SF	09				D				FAIRFIELDPRIVAATNATUURRESERWE	Fairfield Privaatnatuurreserwe	Fairfield Privaatnatuurreserwe	FAIRFIELDPRIVAATNATUURRESERWE	Fairfield Privaatnatuurreserwe	Fairfield Privaatnatuurreserwe		2004-05-11	1,2,3,4,5	1			1993-09-01		
3	-1247713	-1821032	-29.7	24.933333	29:42:00S	24:56:00E	35JLH0005612669	SH35-05	L	AREA		SF	03				D				KORTLAAGTE	Kortlaagte	Kortlaagte	KORTLAAGTE	Kortlaagte	Kortlaagte		2004-04-30	1,2,3,4,5	1			1993-09-01		
3	-1236699	-1807582	-29.016667	18.15	29:01:00S	18:09:00E	34JBN2239486817	SH34-05	L	LCTY		SF	08				D				HENKRIESLAAGTE	Henkrieslaagte	Henkrieslaagte	HENKRIESLAAGTE	Henkrieslaagte	Henkrieslaagte		2004-11-24	1,2,3,4,5	1			1993-09-01		
3	-1255142	-1829705	-25.85	26.566667	25:51:00S	26:34:00E	35JMM5657840856	SG35-06	L	AREA		SF	10				N				MABALANESLOKASIE	Mabalaneslokasie	Mabalaneslokasie	MABALANESLOKASIE	Mabalaneslokasie	Mabalaneslokasie		2004-04-30	1,2,3,4,5	1			1993-09-01		
3	-1265735	-1842443	-32.066667	28.833333	32:04:00S	28:50:00E	35HPE7305650705	SI35-04	L	LCTY		SF	05				N				NGOATYANA	Ngoatyana	Ngoatyana	NGOATYANA	Ngoatyana	Ngoatyana		2004-04-27	1,2,3,4,5	1			1993-09-01		
3	-1264960	-1841527	-32.25	27.966667	32:15:00S	27:58:00E	35HNE9106031443	SI35-03	L	AREA		SF	05				D				NCQAMAKWE	Ncqamakwe	Ncqamakwe	NCQAMAKWE	Ncqamakwe	Ncqamakwe		2004-04-27	1,2,3,4,5	1			1993-09-01		
3	-1272343	-1850326	-33.183333	20.066667	33:11:00S	20:04:00E	34HDJ1299128001	SI34-06	L	LCTY		SF	11				N				PIENAARSHOEK	Pienaarshoek	Pienaarshoek	PIENAARSHOEK	Pienaarshoek	Pienaarshoek		2004-04-23	1,2,3,4,5	1			1993-09-01		
3	-1242499	-1814794	-26	20.516667	26:00:00S	20:31:00E	34JDS5162924227	SG34-06	L	LCTY		SF	08				N				KARIBGNOOS	Karib Gnoos	Karib Gnoos	KARIBGNOOS	Karib Gnoos	Karib Gnoos		2004-04-29	1,2,3,4,5	1			1993-09-01		
3	-1244838	-1817679	-32.05	22.65	32:03:00S	22:39:00E	34HFK5577652832	SI34-04	L	LCTY		SF	11				N				KLEINVAALHOEK	Klein Vaalhoek	Klein Vaalhoek	KLEINVAALHOEK	Klein Vaalhoek	Klein Vaalhoek		2004-04-23	1,2,3,4,5	1			1993-09-01		
3	-1257743	-1832896	-24	31.033333	24:00:00S	31:02:00E	36KTU9994244377	SF36-13	L	AREA		SF	09				D				MASEKESLOKASIE	Masekeslokasie	Masekeslokasie	MASEKESLOKASIE	Masekeslokasie	Masekeslokasie		2004-05-11	1,2,3,4,5	1			1993-09-01		
3	-1250344	-1824050	-30.583333	30.4	30:35:00S	30:24:00E	36JTM5067413694	SH36-09	L	LCTY		SF	02				N				KWAQWABE	KwaQwabe	KwaQwabe	KWAQWABE	KwaQwabe	KwaQwabe		2004-04-27	1,2,3,4,5	1			1993-09-01		
3	-1242586	-1814920	-32.116667	23.666667	32:07:00S	23:40:00E	34HGK5160143518	SI34-04	L	LCTY		SF	11				N				KAROOSIDE	Karoo Side	Karoo Side	KAROOSIDE	Karoo Side	Karoo Side		2004-04-23	1,2,3,4,5	1			1993-09-01		
3	-1247305	-1820571	-29.716667	18.616667	29:43:00S	18:37:00E	34JBN6944910232	SH34-05	L	AREA		SF	08				D				KOOSSEVLEI	Koos se Vlei	Koos se Vlei	KOOSSEVLEI	Koos se Vlei	Koos se Vlei		2004-04-29	1,2,3,4,5	1			1993-09-01		
3	-1264920	-1842991	-32.033333	28.716667	32:02:00S	28:43:00E	35HPE6210054581	SI35-04	L	LCTY		SF	05				V				NICHANA	Nichana	Nichana	NICHANA	Nichana	Nichana		2004-04-27	1,2,3,4,5				1993-09-01		
3	-1264920	-1841479	-32.033333	28.716667	32:02:00S	28:43:00E	35HPE6210054581	SI35-04	L	LCTY		SF	05				N				NCIHANAEAST	Ncihana East	Ncihana East	NCIHANAEAST	Ncihana East	Ncihana East		2004-04-27	1,2,3,4,5	1			1993-09-01		
3	-1274686	-1853123	-31.183333	22.4	31:11:00S	22:24:00E	34JFL3340249236	SH34-15	L	AREA		SF	08				D				RAMFONTEIN	Ramfontein	Ramfontein	RAMFONTEIN	Ramfontein	Ramfontein		2004-04-29	1,2,3,4,5	1			1993-09-01		
3	-1238954	-1810273	-29.716667	30.216667	29:43:00S	30:13:00E	36JTN3074009366	SH36-05	L	RES		SF	02				D				IFABENATIVERESERVE	Ifabe Native Reserve	Ifabe Native Reserve	IFABENATIVERESERVE	Ifabe Native Reserve	Ifabe Native Reserve		2004-04-27	1,2,3,4,5	1			1993-09-01		
3	-1241439	-1813559	-30.983333	18.916667	30:59:00S	18:55:00E	34JCL0105770383	SH34-09	L	LCTY		SF	08				D				KALKGATVLAKTE	Kalkgat Vlakte	Kalkgat Vlakte	KALKGATVLAKTE	Kalkgat Vlakte	Kalkgat Vlakte		2004-04-29	1,2,3,4,5	1			1993-09-01		
3	-1213286	-1780501	-29.833333	25.6	29:50:00S	25:36:00E	35JLG6474198860	SH35-06	L	AREA		SF	03				D				BOOMPLAATS	Boomplaats	Boomplaats	BOOMPLAATS	Boomplaats	Boomplaats		2004-04-30	1,2,3,4,5	1			1993-09-01		
3	-1213285	-1780500	-28.133333	25.366667	28:08:00S	25:22:00E	35JLJ3959386949	SH35-01	L	AREA		SF	03				D				BOOMPLAATS	Boomplaats	Boomplaats	BOOMPLAATS	Boomplaats	Boomplaats		2004-04-30	1,2,3,4,5	1			1993-09-01		
3	-1213283	-1780498	-28.55	24.066667	28:33:00S	24:04:00E	35JKJ1299638356	SH35-01	L	AREA		SF	08				D				BOOMPLAASLOKASIE	Boomplaaslokasie	Boomplaaslokasie	BOOMPLAASLOKASIE	Boomplaaslokasie	Boomplaaslokasie		2004-11-22	1,2,3,4,5	1			1993-09-01		
3	-1213507	-1780769	-28.916667	24.05	28:55:00S	24:03:00E	35JKH1237297664	SH35-01	L	AREA		SF	08				D				BOSCHDUIVENKOP	Boschduiven Kop	Boschduiven Kop	BOSCHDUIVENKOP	Boschduiven Kop	Boschduiven Kop		2004-11-22	1,2,3,4,5	1			1993-09-01		
3	-1237120	-1808083	-34.316667	19.25	34:19:00S	19:15:00E	34HCH3898401345	SI34-09	L	RESF		SF	11				D				HIGHLANDSFORESTRESERVE	Highlands Forest Reserve	Highlands Forest Reserve	HIGHLANDSFORESTRESERVE	Highlands Forest Reserve	Highlands Forest Reserve		2004-04-23	1,2,3,4,5	1			1993-09-01		
3	-1239838	-1811656	-26.7	24.05	26:42:00S	24:03:00E	35JKL0646543394	SG35-09	L	RES		SF	10				D				JAKKALSDRAAINATURELLERESERWE	Jakkalsdraainaturellereserwe	Jakkalsdraainaturellereserwe	JAKKALSDRAAINATURELLERESERWE	Jakkalsdraainaturellereserwe	Jakkalsdraainaturellereserwe		2004-04-30	1,2,3,4,5	1			1993-09-01		
3	-1250129	-1823820	-30.383333	18.583333	30:23:00S	18:35:00E	34JBM6778536259	SH34-09	L	LCTY		SF	08				N				KWANAS	Kwanas	Kwanas	KWANAS	Kwanas	Kwanas		2004-04-29	1,2,3,4,5	1			1993-09-01		
3	-1222350	-1790972	-30.233333	24.233333	30:14:00S	24:14:00E	35JKG3373652120	SH35-09	L	AREA		SF	08				D				DONKERHOEK	Donkerhoek	Donkerhoek	DONKERHOEK	Donkerhoek	Donkerhoek		2004-11-22	1,2,3,4,5	1			1993-09-01		
3	-1219845	-1788167	-30.883333	22.4	30:53:00S	22:24:00E	34JFL3382182488	SH34-11	L	LCTY		SF	08				N				DASSIESTRATE	Dassiestrate	Dassiestrate	DASSIESTRATE	Dassiestrate	Dassiestrate		2004-11-03	1,2,3,4,5	1			1993-09-01		
3	-1247864	-1821236	-25.2	20.366667	25:12:00S	20:22:00E	34JDT3619412756	SG34-06	L	LCTY		SF	08				N				KOUSAUNT	Kousaunt	Kousaunt	KOUSAUNT	Kousaunt	Kousaunt		2004-04-29	1,2,3,4,5	1			1993-09-01		
3	-1246163	-1819165	-30.983333	17.766667	30:59:00S	17:46:00E	33JYF6421768960	SH33-12	L	AREA		SF	08				D				KLIPVLEI	Klipvlei	Klipvlei	KLIPVLEI	Klipvlei	Klipvlei		2004-04-29	1,2,3,4,5	1			1993-09-01		
3	-1248971	-1822541	-30.733333	28.833333	30:44:00S	28:50:00E	35JPF7552198515	SH35-12	L	LCTY		SF	05				N				KUBHUKAZE	KuBhukaze	KuBhukaze	KUBHUKAZE	KuBhukaze	KuBhukaze		2004-04-27	1,2,3,4,5	1			1993-09-01		
3	-1243497	-1816063	-26.7	21.833333	26:42:00S	21:50:00E	34JER8289946521	SG34-11	L	RES		SF	08				N				KHUISRESERVE	Khuis Reserve	Khuis Reserve	KHUISRESERVE	Khuis Reserve	Khuis Reserve		2004-04-29	1,2,3,4,5	1			1993-09-01		
3	-1239013	-1810377	-25.1	30.233333	25:06:00S	30:14:00E	36JTT2097321120	SG36-05	L	RESN		SF	07				D				IMBEETGEANDSONPRIVATENATURERESERVE	I M Beetge and Son Private Nature Reserve	I M Beetge and Son Private Nature Reserve	IMBEETGEANDSONPRIVATENATURERESERVE	I M Beetge and Son Private Nature Reserve	I M Beetge and Son Private Nature Reserve		2004-05-11	1,2,3,4,5	1			1993-09-01		
3	-1255768	-1830456	-30.4	28.75	30:24:00S	28:45:00E	35JPG6811535591	SH35-12	L	RES		SF	05				D				MAGUBALOKASIE	Maguba Lokasie	Maguba Lokasie	MAGUBALOKASIE	Maguba Lokasie	Maguba Lokasie		2004-04-27	1,2,3,4,5	1			1993-09-01		
3	-1237963	-1809082	-29.883333	27.15	29:53:00S	27:09:00E	35JNG1448494133	SH35-07	L	LCTY		SF	03				N				HOLYWELL	Holywell	Holywell	HOLYWELL	Holywell	Holywell		2004-04-30	1,2,3,4,5	1			1993-09-01		
3	-1246255	-1819268	-33.433333	19.166667	33:26:00S	19:10:00E	34HCH2956899169	SI34-05	L	RESF		SF	11				N				KLUITJIESKRAALSTAATSBOS	Kluitjieskraal Staatsbos	Kluitjieskraal Staatsbos	KLUITJIESKRAALSTAATSBOS	Kluitjieskraal Staatsbos	Kluitjieskraal Staatsbos		2004-04-23	1,2,3,4,5	1			1993-09-01		
3	-1246255	-1819267	-33.433333	19.166667	33:26:00S	19:10:00E	34HCH2956899169	SI34-05	L	RESF		SF	11				V				KLUITJIESKRAALFORESTRESERVE	Kluitjieskraal Forest Reserve	Kluitjieskraal Forest Reserve	KLUITJIESKRAALFORESTRESERVE	Kluitjieskraal Forest Reserve	Kluitjieskraal Forest Reserve		2004-04-23	1,2,3,4,5				1993-09-01		
3	-1246255	-1819261	-33.433333	19.166667	33:26:00S	19:10:00E	34HCH2956899169	SI34-05	L	RESF		SF	11				V				KLUITJESKRAALFORESTRESERVE	Kluitjeskraal Forest Reserve	Kluitjeskraal Forest Reserve	KLUITJESKRAALFORESTRESERVE	Kluitjeskraal Forest Reserve	Kluitjeskraal Forest Reserve		2004-04-23	1,2,3,4,5				1993-09-01		
3	-1227489	-1797022	-32	28.216667	32:00:00S	28:13:00E	35JPE1492558918	SH35-15	L	AREA		SF	05				D				ESINQUMENI	Esinqumeni	Esinqumeni	ESINQUMENI	Esinqumeni	Esinqumeni		2004-04-27	1,2,3,4,5	1			1993-09-01		
3	-1248727	-1841268	-23.833333	31.5	23:50:00S	31:30:00E	36KUU4722663417	SF36-14	L	PRK		SF	09				V				NASIONALEKRUGERWILDTUIN	Nasionale Kruger Wildtuin	Nasionale Kruger Wildtuin	NASIONALEKRUGERWILDTUIN	Nasionale Kruger Wildtuin	Nasionale Kruger Wildtuin		2004-05-11	1,2,3,4,5				1993-09-01		
3	-1248727	-1822266	-23.833333	31.5	23:50:00S	31:30:00E	36KUU4722663417	SF36-14	L	PRK		SF	09				N				KRUGERNATIONALPARK	Kruger National Park	Kruger National Park	KRUGERNATIONALPARK	Kruger National Park	Kruger National Park		2004-05-11	1,2,3,4,5	1			1993-09-01		
3	-1248727	-1822265	-23.833333	31.5	23:50:00S	31:30:00E	36KUU4722663417	SF36-14	L	PRK		SF	09				V				KRUGERNASIONALEPARK	Kruger Nasionale Park	Kruger Nasionale Park	KRUGERNASIONALEPARK	Kruger Nasionale Park	Kruger Nasionale Park		2004-05-11	1,2,3,4,5				1993-09-01		
3	-1221371	-1789877	-32.133333	22.8	32:08:00S	22:48:00E	34HFK6978543366	SI34-04	L	LCTY		SF	11				N				DIEHOEK	Die Hoek	Die Hoek	DIEHOEK	Die Hoek	Die Hoek		2004-04-23	1,2,3,4,5	1			1993-09-01		
3	-1223082	-1791825	-28.5	24.05	28:30:00S	24:03:00E	35JKJ1122843859	SH35-01	L	AREA		SF	08				D				DOORNVELD	Doornveld	Doornveld	DOORNVELD	Doornveld	Doornveld		2004-11-22	1,2,3,4,5	1			1993-09-01		
3	-1242206	-1814468	-30.6	18.733333	30:36:00S	18:44:00E	34JBM8268512538	SH34-09	L	LCTY		SF	11				D				KARAGAS	Karagas	Karagas	KARAGAS	Karagas	Karagas		2004-04-23	1,2,3,4,5	1			1993-09-01		
3	-1246313	-1819338	-30.95	18.55	30:57:00S	18:33:00E	34JBL6595273365	SH34-09	L	LCTY		SF	11				D				KNEGTSVLAKTE	Knegts Vlakte	Knegts Vlakte	KNEGTSVLAKTE	Knegts Vlakte	Knegts Vlakte		2004-04-23	1,2,3,4,5	1			1993-09-01		
3	-1230659	-1800620	-30.283333	28.533333	30:17:00S	28:32:00E	35JPG4747348823	SH35-12	L	RES		SF	05				D				GEORGEMOSHESHLOCATION	George Moshesh Location	George Moshesh Location	GEORGEMOSHESHLOCATION	George Moshesh Location	George Moshesh Location		2004-04-27	1,2,3,4,5	1			1993-09-01		
3	-1244708	-1817517	-29.1	19.05	29:06:00S	19:03:00E	34JCN1023479364	SH34-05	L	LCTY		SF	08				V				KLEINROSYNBOSCH	Klein Rosynbosch	Klein Rosynbosch	KLEINROSYNBOSCH	Klein Rosynbosch	Klein Rosynbosch		2004-04-29	1,2,3,4,5				1993-09-01		
3	-1244708	-1817516	-29.1	19.05	29:06:00S	19:03:00E	34JCN1023479364	SH34-05	L	LCTY		SF	08				N				KLEINROSYNBOS	Klein-Rosynbos	Klein-Rosynbos	KLEINROSYNBOS	Klein-Rosynbos	Klein-Rosynbos		2004-04-29	1,2,3,4,5	1			1993-09-01		
3	-1240459	-1812368	-32.816667	27.333333	32:49:00S	27:20:00E	35HND3120368988	SI35-03	L	LCTY		SF	05				N				JOSEPHWILLIAMS	Joseph Williams	Joseph Williams	JOSEPHWILLIAMS	Joseph Williams	Joseph Williams		2004-04-27	1,2,3,4,5	1			1993-09-01		
3	-1226652	-1795970	-25.4	20.5	25:24:00S	20:30:00E	34JDS4970990666	SG34-06	L	LCTY		SF	08				N				ELLIESKOLK	Ellies Kolk	Ellies Kolk	ELLIESKOLK	Ellies Kolk	Ellies Kolk		2004-11-03	1,2,3,4,5	1			1993-09-01		
3	-1232130	-1802271	-25.6	20.283333	25:36:00S	20:17:00E	34JDS2803568418	SG34-06	L	LCTY		SF	08				N				GOPENG	Gopeng	Gopeng	GOPENG	Gopeng	Gopeng		2004-11-03	1,2,3,4,5	1			1993-09-01		
3	-1242857	-1815298	-25.716667	26.983333	25:43:00S	26:59:00E	35JMM9832855693	SG35-06	L	AREA		SF	10				D				KATSAGAESLOKASIE	Katsagaeslokasie	Katsagaeslokasie	KATSAGAESLOKASIE	Katsagaeslokasie	Katsagaeslokasie		2004-04-30	1,2,3,4,5	1			1993-09-01		
3	-1228136	-1797786	-26.866667	26.666667	26:52:00S	26:40:00E	35JML6688928289	SG35-10	L	AREA		SF	10				D				FARWESTRAND	Far West Rand	Far West Rand	FARWESTRAND	Far West Rand	Far West Rand		2004-04-30	1,2,3,4,5	1			1993-09-01		
3	-1228136	-1817829	-26.866667	26.666667	26:52:00S	26:40:00E	35JML6688928289	SG35-10	L	AREA		SF	10				V				KLERKSDORPGOLDFIELDS	Klerksdorp Gold Fields	Klerksdorp Gold Fields	KLERKSDORPGOLDFIELDS	Klerksdorp Gold Fields	Klerksdorp Gold Fields		2004-04-30	1,2,3,4,5				1993-09-01		
3	-1243019	-1815484	-32.616667	28.416667	32:37:00S	28:25:00E	35HPD3291490322	SI35-03	L	RESF		SF	05				N				KEIMOUTHFORESTSTATION	Kei Mouth Forest Station	Kei Mouth Forest Station	KEIMOUTHFORESTSTATION	Kei Mouth Forest Station	Kei Mouth Forest Station		2004-04-27	1,2,3,4,5	1			1993-09-01		
3	-1247996	-1821394	-29.883333	24.383333	29:53:00S	24:23:00E	35JKG4728991266	SH35-05	L	AREA		SF	08				D				KRAANVOGELFONTEIN	Kraanvogelfontein	Kraanvogelfontein	KRAANVOGELFONTEIN	Kraanvogelfontein	Kraanvogelfontein		2004-04-29	1,2,3,4,5	1			1993-09-01		
3	-1221801	-1790349	-30.866667	17.616667	30:52:00S	17:37:00E	33JYF5019182242	SH33-12	L	AREA		SF	08				D				DIEPVLEI	Diepvlei	Diepvlei	DIEPVLEI	Diepvlei	Diepvlei		2004-11-04	1,2,3,4,5	1			1993-09-01		
3	-1222625	-1791300	-28.15	24.8	28:09:00S	24:48:00E	35JKJ8396184224	SH35-01	L	AREA		SF	08				D				DOORNFONTEIN	Doornfontein	Doornfontein	DOORNFONTEIN	Doornfontein	Doornfontein		2004-11-22	1,2,3,4,5	1			1993-09-01		
3	-1232004	-1802127	-24.9	28.5	24:54:00S	28:30:00E	35JPN5149845290	SG35-04	L	AREA		SF	09				N				GOODHOPE	Good Hope	Good Hope	GOODHOPE	Good Hope	Good Hope		2004-05-11	1,2,3,4,5	1			1993-09-01		
3	-1237282	-1808254	-29.75	29.55	29:45:00S	29:33:00E	35JQH4659706192	SH35-08	L	RESN		SF	02				N				HIMEVILLENATURERESERVE	Himeville Nature Reserve	Himeville Nature Reserve	HIMEVILLENATURERESERVE	Himeville Nature Reserve	Himeville Nature Reserve		2004-04-27	1,2,3,4,5	1			1993-09-01		
3	-1216752	-1784560	-25.5	28.5	25:30:00S	28:30:00E	35JPM5075778836	SG35-08	L	RGN		SF	06				N				BUSHVELDIGNEOUSCOMPLEX	Bushveld Igneous Complex	Bushveld Igneous Complex	BUSHVELDIGNEOUSCOMPLEX	Bushveld Igneous Complex	Bushveld Igneous Complex		2004-05-11	1,2,3,4,5	1			1993-09-01		
3	-1229821	-1799692	-29.566667	17.85	29:34:00S	17:51:00E	33JYH7612125839	SH33-08	L	LCTY		SF	08				V				GARACOUPJUNCTION	Garacoup Junction	Garacoup Junction	GARACOUPJUNCTION	Garacoup Junction	Garacoup Junction		2004-11-24	1,2,3,4,5				1993-09-01		
3	-1229821	-1799691	-29.566667	17.85	29:34:00S	17:51:00E	33JYH7612125839	SH33-08	L	LCTY		SF	08				N				GARACOUP	Garacoup	Garacoup	GARACOUP	Garacoup	Garacoup		2004-11-24	1,2,3,4,5	1			1993-09-01		
3	-1243396	-1815946	-29.5	27.183333	29:30:00S	27:11:00E	35JNH1777036603	SH35-07	L	LCTY		SF	03				N				KGORI	Kgori	Kgori	KGORI	Kgori	Kgori		2004-04-30	1,2,3,4,5	1			1993-09-01		
3	-1243376	-1815924	-24.683333	29.916667	24:41:00S	29:55:00E	35JQN9515366977	SG35-04	L	LCTY		SF	09				N				KGOLANESLOKASIE	Kgolaneslokasie	Kgolaneslokasie	KGOLANESLOKASIE	Kgolaneslokasie	Kgolaneslokasie		2004-05-11	1,2,3,4,5	1			1993-09-01		
3	-1217758	-1785760	-23	30.416667	23:00:00S	30:25:00E	36KTV3519354147	SF36-09	L	LCTY		SF	09				N				CHIBASELOCATION	Chibase Location	Chibase Location	CHIBASELOCATION	Chibase Location	Chibase Location		2004-05-11	1,2,3,4,5	1			1993-09-01		
3	-1228231	-1797886	-33.333333	25.783333	33:20:00S	25:47:00E	35HLD8677011098	SI35-06	L	RESF		SF	05				D				FERNIEBRAEFORESTRESERVE	Ferniebrae Forest Reserve	Ferniebrae Forest Reserve	FERNIEBRAEFORESTRESERVE	Ferniebrae Forest Reserve	Ferniebrae Forest Reserve		2004-04-27	1,2,3,4,5	1			1993-09-01		
3	-1257352	-1832430	-28.483333	27.8	28:29:00S	27:48:00E	35JNJ7830648994	SH35-03	L	AREA		SF	03				D				MARIA	Maria	Maria	MARIA	Maria	Maria		2004-04-30	1,2,3,4,5	1			1993-09-01		
3	-1242561	-1815095	-33	23	33:00:00S	23:00:00E	34HFJ8684746936	SI34-04	L	RGN		SF	05				V				KARROO	Karroo	Karroo	KARROO	Karroo	Karroo		2004-04-27	1,2,3,4,5				1993-09-01		
3	-1242561	-1814889	-33	23	33:00:00S	23:00:00E	34HFJ8684746936	SI34-04	L	RGN		SF	05				N				KAROO	Karoo	Karoo	KAROO	Karoo	Karoo		2004-04-27	1,2,3,4,5	1			1993-09-01		
3	-1238977	-1813319	-25.4	25.8	25:24:00S	25:48:00E	35JLM7929890217	SG35-06	L	AREA		SF	10				V				KALAFYNSPORTION	Kalafyn’s Portion	Kalafyn's Portion	KALAFYNSPORTION	Kalafyn’s Portion	Kalafyn's Portion		2004-04-30	1,2,3,4,5				1993-09-01		
3	-1238977	-1810316	-25.4	25.8	25:24:00S	25:48:00E	35JLM7929890217	SG35-06	L	AREA		SF	10				D				IKALAFENGSGEDEELTE	Ikalafengs-Gedeelte	Ikalafengs-Gedeelte	IKALAFENGSGEDEELTE	Ikalafengs-Gedeelte	Ikalafengs-Gedeelte		2004-04-30	1,2,3,4,5	1			1993-09-01		
3	-1214473	-1781880	-25.7	20.5	25:42:00S	20:30:00E	34JDS4983457444	SG34-06	L	LCTY		SF	08				N				BRAEMAR	Braemar	Braemar	BRAEMAR	Braemar	Braemar		2004-11-03	1,2,3,4,5	1			1993-09-01		
3	-1216944	-1784773	-32.266667	28.283333	32:16:00S	28:17:00E	35HPE2087029283	SI35-03	L	AREA		SF	05				D				CAFUTWENI	Cafutweni	Cafutweni	CAFUTWENI	Cafutweni	Cafutweni		2004-04-27	1,2,3,4,5	1			1993-09-01		
3	-1242045	-1814276	-24.983333	20.2	24:59:00S	20:12:00E	34JDT1926036660	SG34-02	L	LCTY		SF	08				N				KANNAGUASS	Kannaguass	Kannaguass	KANNAGUASS	Kannaguass	Kannaguass		2004-04-29	1,2,3,4,5	1			1993-09-01		
3	-1243560	-1816136	-25.95	20.666667	25:57:00S	20:40:00E	34JDS6662729811	SG34-06	L	LCTY		SF	08				N				KIJGARRIES	Kij Garries	Kij Garries	KIJGARRIES	Kij Garries	Kij Garries		2004-04-29	1,2,3,4,5	1			1993-09-01		
3	-1237464	-1808502	-32.15	28.85	32:09:00S	28:51:00E	35HPE7447141439	SI35-04	L	AREA		SF	05				D				HOBENI	Hobeni	Hobeni	HOBENI	Hobeni	Hobeni		2004-04-27	1,2,3,4,5	1			1993-09-01		
3	-1225847	-1795048	-26.583333	22.966667	26:35:00S	22:58:00E	34JFR9586058208	SG34-12	L	AREA		SF	10				D				EIFFEL	Eiffel	Eiffel	EIFFEL	Eiffel	Eiffel		2004-11-04	1,2,3,4,5	1			1993-09-01		
3	-1220138	-1788499	-29.083333	17.433333	29:05:00S	17:26:00E	33JYH3685480336	SH33-08	L	LCTY		SF	08				N				DEELFONTEIN	Deelfontein	Deelfontein	DEELFONTEIN	Deelfontein	Deelfontein		2004-11-24	1,2,3,4,5	1			1993-09-01		
3	-1211947	-1778941	-28.8	17.233333	28:48:00S	17:14:00E	33JYJ1797412125	SH33-04	L	LCTY		SF	08				N				BLOMHOEK	Blomhoek	Blomhoek	BLOMHOEK	Blomhoek	Blomhoek		2004-11-03	1,2,3,4,5	1			1993-09-01		
3	-1224561	-1793519	-33.116667	27.383333	33:07:00S	27:23:00E	35HND3576235714	SI35-07	L	LCTY		SF	05				N				DUBE	Dube	Dube	DUBE	Dube	Dube		2004-04-27	1,2,3,4,5	1			1993-09-01		
3	-1239267	-1810834	-25.466667	20.05	25:28:00S	20:03:00E	34JDS0449883037	SG34-06	L	LCTY		SF	08				N				INNERLEITHEN	Innerleithen	Innerleithen	INNERLEITHEN	Innerleithen	Innerleithen		2004-04-29	1,2,3,4,5	1			1993-09-01		
3	-1229891	-1799765	-29.15	17.933333	29:09:00S	17:56:00E	33JYH8535971835	SH33-08	L	LCTY		SF	08				N				GARI	Gari	Gari	GARI	Gari	Gari		2004-11-24	1,2,3,4,5	1			1993-09-01		
3	-1229880	-1799752	-29.783333	29.183333	29:47:00S	29:11:00E	35JQH1105903225	SH35-08	L	RESF		SF	02				N				GARDENCASTLESTATEFOREST	Garden Castle State Forest	Garden Castle State Forest	GARDENCASTLESTATEFOREST	Garden Castle State Forest	Garden Castle State Forest		2004-04-27	1,2,3,4,5	1			1993-09-01		
3	-1247177	-1820403	-27.666667	23.583333	27:40:00S	23:35:00E	34JGQ5482737053	SG34-16	L	RES		SF	08				D				KONONATIVERESERVE	Kono Native Reserve	Kono Native Reserve	KONONATIVERESERVE	Kono Native Reserve	Kono Native Reserve		2004-04-29	1,2,3,4,5	1			1993-09-01		
3	-1239779	-1811565	-33.35	27.033333	33:21:00S	27:02:00E	35HND0310109910	SI35-07	L	LCTY		SF	05				N				JAJI	Jaji	Jaji	JAJI	Jaji	Jaji		2004-04-27	1,2,3,4,5	1			1993-09-01		
3	-1240418	-1812320	-25.833333	23.833333	25:50:00S	23:50:00E	34JGS8402539711	SG34-08	L	AREA		SF	10				D				JOR	Jor	Jor	JOR	Jor	Jor		2004-11-04	1,2,3,4,5	1			1993-09-01		
3	-1241899	-1814076	-22.783333	30.933333	22:47:00S	30:56:00E	36KTV8783678983	SF36-09	L	AREA		SF	09				D				KAMHINGA	Ka-Mhinga	Ka-Mhinga	KAMHINGA	Ka-Mhinga	Ka-Mhinga		2004-05-11	1,2,3,4,5	1			1993-09-01		
3	-1237944	-1809060	-30.883333	17.683333	30:53:00S	17:41:00E	33JYF5652380243	SH33-12	L	AREA		SF	08				D				HOLVLEI	Holvlei	Holvlei	HOLVLEI	Holvlei	Holvlei		2004-11-04	1,2,3,4,5	1			1993-09-01		
3	-1214352	-1781746	-31.85	20.366667	31:51:00S	20:22:00E	34JDK4008176016	SH34-14	L	AREA		SF	08				D				BOVENSTE	Bovenste	Bovenste	BOVENSTE	Bovenste	Bovenste		2004-11-05	1,2,3,4,5	1			1993-09-01		
3	-1217560	-1785526	-32.4	28.35	32:24:00S	28:21:00E	35HPE2696314424	SI35-03	L	AREA		SF	05				D				CENTULI	Centuli	Centuli	CENTULI	Centuli	Centuli		2004-04-27	1,2,3,4,5	1			1993-09-01		
3	-1221399	-1789907	-33.716667	19.966667	33:43:00S	19:58:00E	34HDH0425668779	SI34-06	L	LCTY		SF	11				N				DIEKEISIE	Die Keisie	Die Keisie	DIEKEISIE	Die Keisie	Die Keisie		2004-04-23	1,2,3,4,5	1			1993-09-01		
3	-1213987	-1781332	-25.333333	28.233333	25:20:00S	28:14:00E	35JPM2412497570	SG35-07	L	AREA		SF	10				D				BOSPLAAS	Bosplaas	Bosplaas	BOSPLAAS	Bosplaas	Bosplaas		2004-04-30	1,2,3,4,5	1			1993-09-01		
3	-1214366	-1781761	-32.383333	20.466667	32:23:00S	20:28:00E	34HDK4983416948	SI34-02	L	LCTY		SF	08				N				BOVISRIVIER	Bo-Visrivier	Bo-Visrivier	BOVISRIVIER	Bo-Visrivier	Bo-Visrivier		2004-11-05	1,2,3,4,5	1			1993-09-01		
3	-1227521	-1797061	-26.866667	23.866667	26:52:00S	23:52:00E	34JGR8482225111	SG34-12	L	AREA		SF	10				D				ESRON	Esron	Esron	ESRON	Esron	Esron		2004-11-04	1,2,3,4,5	1			1993-09-01		
3	-1235537	-1806242	-31.2	19.666667	31:12:00S	19:40:00E	34JCL7297347467	SH34-14	L	AREA		SF	08				N				HANTAM	Hantam	Hantam	HANTAM	Hantam	Hantam		2004-11-04	1,2,3,4,5	1			1993-09-01		
3	-1235524	-1806229	-24	28.816667	24:00:00S	28:49:00E	35KPP8479644582	SF35-16	L	LCTY		SF	09				D				HANSMOSIBISLOKASIE	Hans Mosibislokasie	Hans Mosibislokasie	HANSMOSIBISLOKASIE	Hans Mosibislokasie	Hans Mosibislokasie		2004-05-11	1,2,3,4,5	1			1993-09-01		
3	-1219263	-1787529	-33.383333	27.1	33:23:00S	27:06:00E	35HND0930106211	SI35-07	L	LCTY		SF	05				N				DABI	Dabi	Dabi	DABI	Dabi	Dabi		2004-04-27	1,2,3,4,5	1			1993-09-01		
3	-1233920	-1804350	-33.35	20.433333	33:21:00S	20:26:00E	34HDJ4727409768	SI34-06	L	LCTY		SF	11				N				GROOTHOEK	Groothoek	Groothoek	GROOTHOEK	Groothoek	Groothoek		2004-04-23	1,2,3,4,5	1			1993-09-01		
3	-1233919	-1804349	-33.216667	20.016667	33:13:00S	20:01:00E	34HDJ0836424262	SI34-06	L	LCTY		SF	11				N				GROOTHOEK	Groothoek	Groothoek	GROOTHOEK	Groothoek	Groothoek		2004-04-23	1,2,3,4,5	1			1993-09-01		
3	-1233083	-1803391	-28.5	23.5	28:30:00S	23:30:00E	34JGP4470544860	SH34-04	L	RGN		SF	08				N				GRIQUALANDWEST	Griqualand West	Griqualand West	GRIQUALANDWEST	Griqualand West	Griqualand West		2004-11-03	1,2,3,4,5	1			1993-09-01		
3	-1233082	-1803390	-30.5	29	30:30:00S	29:00:00E	35JPG9194024108	SH35-12	L	RGN		SF	02				D				GRIQUALANDEAST	Griqualand East	Griqualand East	GRIQUALANDEAST	Griqualand East	Griqualand East		2004-04-27	1,2,3,4,5	1			1993-09-01		
3	-1233082	-1794429	-30.5	29	30:30:00S	29:00:00E	35JPG9194024108	SH35-12	L	RGN		SF	02				V				EASTGRIQUALAND	East Griqualand	East Griqualand	EASTGRIQUALAND	East Griqualand	East Griqualand		2004-04-27	1,2,3,4,5				1993-09-01		
3	-1233082	-1803372	-30.5	29	30:30:00S	29:00:00E	35JPG9194024108	SH35-12	L	RGN		SF	02				V				GRIEKWALANDOOS	Griekwalandoos	Griekwalandoos	GRIEKWALANDOOS	Griekwalandoos	Griekwalandoos		2004-04-27	1,2,3,4,5				1993-09-01		
3	-1214870	-1782346	-30.3	18.016667	30:18:00S	18:01:00E	34JBM1307044200	SH34-09	L	LCTY		SF	08				N				BRAKPUTS	Brakputs	Brakputs	BRAKPUTS	Brakputs	Brakputs		2004-11-24	1,2,3,4,5	1			1993-09-01		
3	-1234910	-1805507	-30.683333	29.533333	30:41:00S	29:32:00E	35JQG4268102753	SH35-12	L	RESF		SF	05				D				GWALENIFORESTS	Gwaleni Forests	Gwaleni Forests	GWALENIFORESTS	Gwaleni Forests	Gwaleni Forests		2004-04-27	1,2,3,4,5	1			1993-09-01		
3	-1235281	-1805952	-23.133333	30.3	23:08:00S	30:18:00E	36KTV2350139159	SF36-13	L	LCTY		SF	09				N				HAMASHAU	Ha-Mashau	Ha-Mashau	HAMASHAU	Ha-Mashau	Ha-Mashau		2004-05-11	1,2,3,4,5	1			1993-09-01		
3	-1226823	-1796178	-30.85	30.083333	30:51:00S	30:05:00E	36JTL2106583379	SH36-09	L	LCTY		SF	02				N				EMBLAZI	Emblazi	Emblazi	EMBLAZI	Emblazi	Emblazi		2004-04-27	1,2,3,4,5	1			1993-09-01		
3	-1221939	-1790493	-27.216667	32.566667	27:13:00S	32:34:00E	36JVQ5708989492	SG36-14	L	AREA		SF	02				D				DIGI	Digi	Digi	DIGI	Digi	Digi		2004-04-27	1,2,3,4,5	1			1993-09-01		
3	-1219621	-1787914	-24.966667	20.133333	24:58:00S	20:08:00E	34JDT1251938464	SG34-02	L	LCTY		SF	08				N				DANKBAAR	Dankbaar	Dankbaar	DANKBAAR	Dankbaar	Dankbaar		2004-11-03	1,2,3,4,5	1			1993-09-01		
3	-1230824	-1800808	-33.2	20.033333	33:12:00S	20:02:00E	34HDJ0990126124	SI34-06	L	LCTY		SF	11				N				GHWARRIEHOEK	Ghwarriehoek	Ghwarriehoek	GHWARRIEHOEK	Ghwarriehoek	Ghwarriehoek		2004-04-23	1,2,3,4,5	1			1993-09-01		
3	-1225410	-1794557	-27.75	22.916667	27:45:00S	22:55:00E	34JFQ8890529019	SG34-16	L	AREA		SF	08				D				ECKSRUS	Ecksrus	Ecksrus	ECKSRUS	Ecksrus	Ecksrus		2004-11-22	1,2,3,4,5	1			1993-09-01		
3	-1225410	-1794558	-27.75	22.916667	27:45:00S	22:55:00E	34JFQ8890529019	SG34-16	L	AREA		SF	08				V				ECKSRUST	Ecksrust	Ecksrust	ECKSRUST	Ecksrust	Ecksrust		2004-11-22	1,2,3,4,5				1993-09-01		
3	-1213418	-1780654	-30.533333	29.816667	30:32:00S	29:49:00E	35JQG7025018738	SH35-12	L	RESF		SF	02				D				BORDERFORESTRESERVE	Border Forest Reserve	Border Forest Reserve	BORDERFORESTRESERVE	Border Forest Reserve	Border Forest Reserve		2004-04-27	1,2,3,4,5	1			1993-09-01		
3	-1213418	-1780652	-30.533333	29.816667	30:32:00S	29:49:00E	35JQG7025018738	SH35-12	L	RESF		SF	02				V				BORDER	Border	Border	BORDER	Border	Border		2004-04-27	1,2,3,4,5				1993-09-01		
